SR_NUMBER,SR_TYPE,SR_SHORT_CODE,CREATED_DEPARTMENT,OWNER_DEPARTMENT,STATUS,ORIGIN,CREATED_DATE,LAST_MODIFIED_DATE,CLOSED_DATE,STREET_ADDRESS,CITY,STATE,ZIP_CODE,STREET_NUMBER,STREET_DIRECTION,STREET_NAME,STREET_TYPE,DUPLICATE,LEGACY_RECORD,LEGACY_SR_NUMBER,PARENT_SR_NUMBER,COMMUNITY_AREA,WARD,ELECTRICAL_DISTRICT,ELECTRICITY_GRID,POLICE_SECTOR,POLICE_DISTRICT,POLICE_BEAT,PRECINCT,SANITATION_DIVISION_DAYS,CREATED_HOUR,CREATED_DAY_OF_WEEK,CREATED_MONTH,X_COORDINATE,Y_COORDINATE,LATITUDE,LONGITUDE,LOCATION,Boundaries - ZIP Codes,Community Areas,Zip Codes,Census Tracts,Wards,Boundaries - Wards (2023-)
SR22-02210869,No Water Complaint,WBJ,311 City Services,DWM - Department of Water Management,Canceled,Phone Call,12/30/2022 08:16:11 PM,12/30/2022 08:19:18 PM,12/30/2022 08:19:18 PM,4300 W FORD CITY DR,,,,4300,W,FORD CITY,DR,false,false,,,65,18,,F040,3,08,0833,43,,20,6,12,1148729.204001526,1853504.419539838,41.753952001,-87.7305375,"(41.75395200094, -87.73053750000192)",8,63,4300,318,30,18
SR22-02210766,No Water Complaint,WBJ,311 City Services,DWM - Department of Water Management,Canceled,Phone Call,12/30/2022 07:37:37 PM,12/30/2022 07:52:50 PM,12/30/2022 07:52:50 PM,4300 W FORD CITY DR,,,,4300,W,FORD CITY,DR,false,false,,,65,18,,F040,3,08,0833,43,,19,6,12,1148729.204001526,1853504.419539838,41.753952001,-87.7305375,"(41.75395200094, -87.73053750000192)",8,63,4300,318,30,18
SR22-02210660,No Water Complaint,WBJ,311 City Services,DWM - Department of Water Management,Completed,Phone Call,12/30/2022 07:01:47 PM,01/01/2023 09:20:48 PM,01/01/2023 09:20:48 PM,7318 S RIDGELAND AVE,,,,7318,S,RIDGELAND,AVE,false,false,,,43,7,,U039,2,03,0324,42,,19,6,12,1189006.412865484,1856697.536786893,41.761845001,-87.582834,"(41.76184500094002, -87.5828340000019)",24,39,22538,419,35,5
SR22-02210266,No Water Complaint,WBJ,311 City Services,DWM - Department of Water Management,Completed,Phone Call,12/30/2022 05:14:11 PM,01/01/2023 09:34:55 PM,01/01/2023 09:34:55 PM,3936 W 85TH ST,,,,3936,W,85TH,ST,false,false,,,70,18,,G042,3,08,0834,36,,17,6,12,1151455.187944571,1847987.583364185,41.738760001,-87.7206915,"(41.73876000093995, -87.7206915000019)",8,69,4300,198,30,18
SR22-02210093,No Water Complaint,WBJ,311 City Services,DWM - Department of Water Management,Canceled,Phone Call,12/30/2022 04:32:37 PM,12/30/2022 05:08:55 PM,12/30/2022 05:08:55 PM,3926 N OLEANDER AVE,,,,3926,N,OLEANDER,AVE,false,false,,,17,38,,X113,3,16,1631,13,,16,6,12,1124953.134243938,1925056.858886873,41.950728001,-87.8160915,"(41.950728000940686, -87.81609150000189)",52,17,22254,392,19,38
SR22-02209981,No Water Complaint,WBJ,311 City Services,DWM - Department of Water Management,Completed,Phone Call,12/30/2022 04:03:31 PM,01/02/2023 03:04:44 AM,01/02/2023 03:04:44 AM,7543 S KENWOOD AVE,,,,7543,S,KENWOOD,AVE,false,false,,,43,8,,T040,1,04,0411,12,,16,6,12,1186602.887752783,1855069.601875212,41.757435001,-87.5916945,"(41.75743500094004, -87.5916945000019)",61,39,21546,188,33,10
SR22-02209928,No Water Complaint,WBJ,311 City Services,DWM - Department of Water Management,Canceled,Phone Call,12/30/2022 03:51:04 PM,12/30/2022 03:59:51 PM,12/30/2022 03:59:51 PM,3939 N BROADWAY,,,,3939,N,BROADWAY,,false,false,,,6,46,,N013,2,19,1923,38,,15,6,12,1170141.549075245,1926540.99056739,41.953932001,-87.649938,"(41.95393200094073, -87.6499380000019)",53,57,21186,83,39,46
SR22-02209915,No Water Complaint,WBJ,311 City Services,DWM - Department of Water Management,Completed,Phone Call,12/30/2022 03:49:13 PM,12/31/2022 07:07:05 PM,12/31/2022 07:07:05 PM,2278 S BLUE ISLAND AVE,,,,2278,S,BLUE ISLAND,AVE,true,false,,SR22-02194543,31,25,,L027,3,10,1034,15,,15,6,12,1164993.142524712,1888992.727750048,41.851008001,-87.6699315,"(41.85100800094036, -87.66993150000191)",43,33,14920,126,26,25
SR22-02209756,No Water Complaint,WBJ,311 City Services,DWM - Department of Water Management,Canceled,Phone Call,12/30/2022 03:18:01 PM,12/30/2022 03:56:39 PM,12/30/2022 03:56:39 PM,3951 N OLEANDER AVE,,,,3951,N,OLEANDER,AVE,false,false,,,17,38,,X113,3,16,1631,13,,15,6,12,1125103.258969402,1925333.263534679,41.951484001,-87.8155335,"(41.95148400094066, -87.81553350000192)",52,17,22254,392,19,38
SR22-02209647,No Water Complaint,WBJ,311 City Services,DWM - Department of Water Management,Canceled,Phone Call,12/30/2022 02:55:33 PM,12/30/2022 03:40:08 PM,12/30/2022 03:40:08 PM,7543 S KENWOOD AVE,,,,7543,S,KENWOOD,AVE,false,false,,,43,8,,T040,1,04,0411,12,,14,6,12,1186602.887752783,1855069.601875212,41.757435001,-87.5916945,"(41.75743500094004, -87.5916945000019)",61,39,21546,188,33,10
SR22-02209475,No Water Complaint,WBJ,311 City Services,DWM - Department of Water Management,Completed,Phone Call,12/30/2022 02:36:28 PM,12/30/2022 08:52:32 PM,12/30/2022 08:52:32 PM,5064 W VAN BUREN ST,,,,5064,W,VAN BUREN,ST,false,false,,,25,29,,D023,3,15,1533,2,,14,6,12,1142602.986821974,1897562.897063628,41.874970949,-87.75189594,"(41.87497094880847, -87.75189593956895)",32,26,22216,184,7,29
SR22-02209357,No Water Complaint,WBJ,311 City Services,DWM - Department of Water Management,Canceled,Phone Call,12/30/2022 02:22:08 PM,12/30/2022 02:42:46 PM,12/30/2022 02:42:46 PM,5115 N SPRINGFIELD AVE,,,,5115,N,SPRINGFIELD,AVE,false,false,,,14,39,,G010,1,17,1712,29,,14,6,12,1149516.573535379,1933775.030846466,41.974209001,-87.7255695,"(41.97420900094075, -87.7255695000019)",20,14,21849,127,38,39
SR22-02209289,No Water Complaint,WBJ,311 City Services,DWM - Department of Water Management,Canceled,Phone Call,12/30/2022 02:14:05 PM,12/30/2022 02:47:35 PM,12/30/2022 02:47:35 PM,5951 S HERMITAGE AVE,,,,5951,S,HERMITAGE,AVE,false,false,,,67,15,,L036,1,07,0714,20,,14,6,12,1165766.068787878,1865027.007750683,41.785227001,-87.667776,"(41.78522700094008, -87.66777600000191)",23,65,22257,276,3,15
SR22-02208901,No Water Complaint,WBJ,,DWM - Department of Water Management,Completed,Internet,12/30/2022 01:33:56 PM,01/01/2023 04:31:43 PM,01/01/2023 04:31:43 PM,6414 S EVANS AVE,,,,6414,S,EVANS,AVE,false,false,,,42,20,,R037,1,03,0312,33,,13,6,12,1182248.249462501,1862552.964646509,41.778072001,-87.607422,"(41.778072000940085, -87.60742200000192)",60,9,22260,332,4,20
SR22-02208720,No Water Complaint,WBJ,311 City Services,DWM - Department of Water Management,Canceled,Phone Call,12/30/2022 01:17:32 PM,12/31/2022 10:07:40 AM,12/31/2022 10:07:40 AM,6046 W MELROSE ST,,,,6046,W,MELROSE,ST,true,false,,SR22-02208702,17,30,,A014,3,16,1633,21,,13,6,12,1135318.298899286,1921051.538901016,41.939559001,-87.7780845,"(41.939559000940655, -87.77808450000191)",52,17,22254,459,21,30
SR22-02208494,No Water Complaint,WBJ,311 City Services,DWM - Department of Water Management,Completed,Phone Call,12/30/2022 12:53:23 PM,12/30/2022 02:35:56 PM,12/30/2022 02:35:56 PM,9143 S COTTAGE GROVE AVE,,,,9143,S,COTTAGE GROVE,AVE,false,false,,,44,8,,S044,3,06,0633,15,,12,6,12,1183182.326803259,1844333.908703512,41.728055318,-87.604563436,"(41.7280553176196, -87.6045634356048)",61,40,21546,429,35,10
SR22-02208346,No Water Complaint,WBJ,311 City Services,DWM - Department of Water Management,Canceled,Phone Call,12/30/2022 12:37:54 PM,12/30/2022 12:48:48 PM,12/30/2022 12:48:48 PM,3945 N BROADWAY,,,,3945,N,BROADWAY,,false,false,,,6,46,,N013,2,19,1923,38,,12,6,12,1170104.356965976,1926599.731156827,41.954094001,-87.650073,"(41.95409400094069, -87.6500730000019)",53,57,21186,83,39,46
SR22-02208336,No Water Complaint,WBJ,311 City Services,DWM - Department of Water Management,Completed,Phone Call,12/30/2022 12:36:55 PM,12/30/2022 12:56:53 PM,12/30/2022 12:56:53 PM,4745 W MAYPOLE AVE,,,,4745,W,MAYPOLE,AVE,false,false,,,25,28,,E022,1,11,1113,21,,12,6,12,1144515.514143092,1900932.579729563,41.884182001,-87.744789,"(41.884182000940456, -87.74478900000192)",32,26,22216,696,23,28
SR22-02208298,No Water Complaint,WBJ,311 City Services,DWM - Department of Water Management,Completed,Phone Call,12/30/2022 12:31:51 PM,12/31/2022 10:59:46 AM,12/31/2022 10:59:46 AM,3204 N OAKLEY AVE,,,,3204,N,OAKLEY,AVE,false,false,,,5,32,,K014,2,19,1921,19,,12,6,12,1160455.840313523,1921269.660642845,41.939673583,-87.685690161,"(41.939673582728844, -87.68569016113148)",39,46,21538,615,40,32
SR22-02208107,No Water Complaint,WBJ,311 City Services,DWM - Department of Water Management,Completed,Phone Call,12/30/2022 12:07:59 PM,01/01/2023 04:28:40 PM,01/01/2023 04:28:40 PM,5606 S WABASH AVE,,,,5606,S,WABASH,AVE,false,false,,,40,20,,Q035,2,02,0225,31,,12,6,12,1177549.211724931,1867787.626191111,41.792544001,-87.6244905,"(41.792544000940126, -87.6244905000019)",60,7,22260,403,4,20
SR22-02207560,No Water Complaint,WBJ,311 City Services,DWM - Department of Water Management,Completed,Phone Call,12/30/2022 10:49:26 AM,03/14/2023 04:36:26 PM,12/30/2022 11:50:23 AM,501 N CENTRAL AVE,,,,501,N,CENTRAL,AVE,false,false,,,25,37,,C021,2,15,1523,37,,10,6,12,1139087.696098227,1902837.586128556,41.889510001,-87.7646745,"(41.88951000094047, -87.76467450000192)",32,26,22216,673,45,37
SR22-02207452,No Water Complaint,WBJ,311 City Services,DWM - Department of Water Management,Canceled,Phone Call,12/30/2022 10:37:44 AM,12/30/2022 12:08:44 PM,12/30/2022 12:08:44 PM,9518 S GREENWOOD AVE,,,,9518,S,GREENWOOD,AVE,false,false,,,50,8,,S045,1,05,0511,22,,10,6,12,1185143.191381735,1841970.837887936,41.721525001,-87.5974545,"(41.721525000939906, -87.5974545000019)",19,47,21861,643,35,10
SR22-02207248,No Water Complaint,WBJ,311 City Services,DWM - Department of Water Management,Completed,Phone Call,12/30/2022 10:12:38 AM,12/30/2022 10:22:07 AM,12/30/2022 10:22:07 AM,5200 N SHERIDAN RD,,,,5200,N,SHERIDAN,RD,false,false,,,77,48,,N009,2,20,2023,28,,10,6,12,1168531.454295223,1934790.13319276,41.976603001,-87.655617,"(41.976603000940784, -87.6556170000019)",15,76,22616,93,16,48
SR22-02207135,No Water Complaint,WBJ,,DWM - Department of Water Management,Canceled,Internet,12/30/2022 09:58:46 AM,12/30/2022 10:32:03 AM,12/30/2022 10:32:03 AM,1131 S TROY ST,,,,1131,S,TROY,ST,false,false,,,29,24,,I024,3,11,1134,40,,9,6,12,1155612.219817032,1894871.604990671,41.867334001,-87.7042035,"(41.86733400094039, -87.7042035000019)",28,30,21184,35,14,24
SR22-02207091,No Water Complaint,WBJ,311 City Services,DWM - Department of Water Management,Completed,Phone Call,12/30/2022 09:53:42 AM,12/31/2022 03:28:55 PM,12/31/2022 03:28:55 PM,3234 W BEACH AVE,,,,3234,W,BEACH,AVE,false,false,,,23,26,,H019,2,14,1422,12,,9,6,12,1154386.304600005,1909533.040459038,41.907591001,-87.708312,"(41.90759100094053, -87.7083120000019)",5,24,4299,455,49,26
SR22-02206816,No Water Complaint,WBJ,Alderman,DWM - Department of Water Management,Completed,Alderman's Office,12/30/2022 09:15:36 AM,12/30/2022 09:54:06 AM,12/30/2022 09:54:06 AM,3649 W DOUGLAS BLVD,,,,3649,W,DOUGLAS,BLVD,false,false,,,29,24,,G025,1,10,1011,34,,9,6,12,1152087.550759567,1892904.429664017,41.862006001,-87.717195,"(41.8620060009404, -87.71719500000191)",57,30,21569,33,14,24
SR22-02206794,No Water Complaint,WBJ,311 City Services,DWM - Department of Water Management,Completed,Phone Call,12/30/2022 09:12:49 AM,12/30/2022 09:33:03 AM,12/30/2022 09:33:03 AM,2309 E 79TH ST,,,,2309,E,79TH,ST,false,false,,,46,7,,V041,1,04,0414,15,,9,6,12,1193023.992359102,1852951.337914503,41.751468001,-87.5682315,"(41.75146800094004, -87.56823150000191)",25,42,21202,507,37,5
SR22-02206779,No Water Complaint,WBJ,Alderman,DWM - Department of Water Management,Completed,Alderman's Office,12/30/2022 09:09:29 AM,12/30/2022 09:41:47 AM,12/30/2022 09:41:47 AM,1442 S AVERS AVE,,,,1442,S,AVERS,AVE,false,false,,,29,24,,G025,1,10,1011,24,,9,6,12,1150874.601432622,1892639.936415662,41.861304001,-87.7216545,"(41.86130400094036, -87.7216545000019)",57,30,21569,33,14,24
SR22-02206691,No Water Complaint,WBJ,311 City Services,DWM - Department of Water Management,Completed,Phone Call,12/30/2022 08:57:59 AM,12/30/2022 09:06:13 AM,12/30/2022 09:06:13 AM,4534 S DREXEL AVE,,,,4534,S,DREXEL,AVE,false,false,,,39,4,,S032,2,02,0221,34,,8,6,12,1182689.476485051,1874954.267379635,41.812092001,-87.6054195,"(41.8120920009402, -87.6054195000019)",36,5,4301,398,10,9
SR22-02206625,No Water Complaint,WBJ,311 City Services,DWM - Department of Water Management,Completed,Phone Call,12/30/2022 08:48:12 AM,03/14/2023 04:36:26 PM,12/30/2022 08:56:01 AM,501 N CENTRAL AVE,,,,501,N,CENTRAL,AVE,false,false,,,25,37,,C021,2,15,1523,37,,8,6,12,1139087.696098227,1902837.586128556,41.889510001,-87.7646745,"(41.88951000094047, -87.76467450000192)",32,26,22216,673,45,37
SR22-02206505,No Water Complaint,WBJ,DWM - Department of Water Management,DWM - Department of Water Management,Completed,Phone Call,12/30/2022 08:28:09 AM,12/30/2022 10:59:04 AM,12/30/2022 10:59:04 AM,701 S CARPENTER ST,,,,701,S,CARPENTER,ST,false,false,,,28,34,,N024,3,12,1232,7,,8,6,12,1169708.471692598,1896904.398960952,41.872617001,-87.652395,"(41.872617000940394, -87.6523950000019)",44,29,14917,87,48,34
SR22-02206316,No Water Complaint,WBJ,311 City Services,DWM - Department of Water Management,Canceled,Phone Call,12/30/2022 08:01:28 AM,12/30/2022 08:52:17 AM,12/30/2022 08:52:17 AM,3522 W JACKSON BLVD,,,,3522,W,JACKSON,BLVD,false,false,,,27,28,,H023,2,11,1123,25,,8,6,12,1152793.326065418,1898560.516082835,41.877513001,-87.7144545,"(41.87751300094042, -87.71445450000192)",30,28,21572,783,23,28
SR22-02206001,No Water Complaint,WBJ,311 City Services,DWM - Department of Water Management,Completed,Phone Call,12/30/2022 07:12:43 AM,12/30/2022 07:46:15 AM,12/30/2022 07:46:15 AM,7932 S KINGSTON AVE,,,,7932,S,KINGSTON,AVE,false,false,,,46,7,,W041,2,04,0422,19,,7,6,12,1194480.049541843,1852718.347169255,41.750793001,-87.5629035,"(41.75079300094001, -87.56290350000191)",25,42,21202,478,37,5
SR22-02205143,No Water Complaint,WBJ,311 City Services,DWM - Department of Water Management,Completed,Phone Call,12/29/2022 10:28:33 PM,12/29/2022 10:42:36 PM,12/29/2022 10:42:36 PM,45 N MAYFIELD AVE,,,,45,N,MAYFIELD,AVE,false,false,,,25,29,,B022,1,15,1513,20,,22,5,12,1137170.636370302,1899923.920899737,41.881549167,-87.771784883,"(41.881549167056434, -87.77178488257512)",32,26,22216,618,7,29
SR22-02205082,No Water Complaint,WBJ,311 City Services,DWM - Department of Water Management,Completed,Phone Call,12/29/2022 10:04:46 PM,12/30/2022 09:40:18 AM,12/30/2022 09:40:18 AM,1622 W PIERCE AVE,,,,1622,W,PIERCE,AVE,false,false,,,24,1,,L019,3,14,1433,7,,22,5,12,1165173.533699289,1910502.960482754,41.910030001,-87.668658,"(41.91003000094054, -87.6686580000019)",4,25,21560,482,11,1
SR22-02204827,No Water Complaint,WBJ,,DWM - Department of Water Management,Completed,Internet,12/29/2022 08:14:51 PM,12/30/2022 08:49:17 PM,12/30/2022 08:49:17 PM,7958 S CHAPPEL AVE,,,,7958,S,CHAPPEL,AVE,false,false,,,46,8,,V041,1,04,0414,53,,20,5,12,1191171.066646532,1852377.371209836,41.749938001,-87.57504,"(41.74993800093999, -87.5750400000019)",25,42,21202,507,35,10
SR22-02204568,No Water Complaint,WBJ,,DWM - Department of Water Management,Completed,Internet,12/29/2022 07:00:10 PM,01/16/2023 03:17:28 PM,01/16/2023 03:17:28 PM,3828 S HONORE ST,,,,3828,S,HONORE,ST,false,false,,,59,12,,L030,1,09,0912,19,,19,5,12,1164572.184290202,1879176.437826302,41.824080001,-87.671754,"(41.824080000940235, -87.6717540000019)",37,56,14924,720,1,12
SR22-02204198,No Water Complaint,WBJ,,DWM - Department of Water Management,Canceled,Internet,12/29/2022 05:54:04 PM,12/29/2022 06:35:45 PM,12/29/2022 06:35:45 PM,7932 S WABASH AVE,,,,7932,S,WABASH,AVE,false,false,,,44,6,,Q041,2,06,0623,41,,17,5,12,1177889.225307968,1852309.988604072,41.750064001,-87.623712,"(41.750064000939986, -87.62371200000192)",61,40,21546,406,32,4
SR22-02203888,No Water Complaint,WBJ,311 City Services,DWM - Department of Water Management,Completed,Phone Call,12/29/2022 04:48:58 PM,12/30/2022 10:34:53 AM,12/30/2022 10:34:53 AM,8855 S WALLACE ST,,,,8855,S,WALLACE,ST,false,false,,,71,21,,O043,2,22,2223,11,,16,5,12,1173939.6242777,1845957.711621925,41.732721001,-87.638373,"(41.73272100093992, -87.6383730000019)",59,70,21554,608,13,21
SR22-02203744,No Water Complaint,WBJ,311 City Services,DWM - Department of Water Management,Open,Phone Call,12/29/2022 04:19:44 PM,01/01/2023 04:35:12 PM,,8048 S MARQUETTE AVE,,,,8048,S,MARQUETTE,AVE,false,false,,,46,7,,W041,2,04,0422,20,,16,5,12,1195506.461629907,1851924.011943017,41.748588001,-87.5591685,"(41.74858800094002, -87.55916850000192)",25,42,21202,244,37,5
SR22-02203335,No Water Complaint,WBJ,311 City Services,DWM - Department of Water Management,Canceled,Phone Call,12/29/2022 03:14:15 PM,03/14/2023 04:36:26 PM,12/29/2022 05:33:27 PM,501 N CENTRAL AVE,,,,501,N,CENTRAL,AVE,false,false,,,25,37,,C021,2,15,1523,37,,15,5,12,1139087.696098227,1902837.586128556,41.889510001,-87.7646745,"(41.88951000094047, -87.76467450000192)",32,26,22216,673,45,37
SR22-02203224,No Water Complaint,WBJ,311 City Services,DWM - Department of Water Management,Completed,Phone Call,12/29/2022 02:57:49 PM,01/01/2023 04:50:15 PM,01/01/2023 04:50:15 PM,7855 S ESCANABA AVE,,,,7855,S,ESCANABA,AVE,false,false,,,43,7,,X040,2,04,0421,17,,14,5,12,1196908.514671061,1853203.22042608,41.752063513,-87.553988532,"(41.75206351253929, -87.55398853230932)",24,39,22538,246,37,5
SR22-02202834,No Water Complaint,WBJ,311 City Services,DWM - Department of Water Management,Completed,Phone Call,12/29/2022 02:15:33 PM,12/30/2022 10:56:57 AM,12/30/2022 10:56:57 AM,8830 S HOUSTON AVE,,,,8830,S,HOUSTON,AVE,false,false,,,46,10,,X043,2,04,0424,18,,14,5,12,1197980.360685129,1846869.281998877,41.734656001,-87.550272,"(41.73465600093991, -87.5502720000019)",25,42,21202,509,47,6
SR22-02202789,No Water Complaint,WBJ,311 City Services,DWM - Department of Water Management,Completed,Phone Call,12/29/2022 02:10:14 PM,12/29/2022 06:38:04 PM,12/29/2022 06:38:05 PM,1120 W 19TH PL,,,,1120,W,19TH,PL,false,false,,,31,25,,N026,3,12,1235,12,,14,5,12,1169309.919227066,1890889.390809905,41.856120001,-87.654033,"(41.85612000094037, -87.6540330000019)",43,33,14920,251,26,25
SR22-02202487,No Water Complaint,WBJ,311 City Services,DWM - Department of Water Management,Completed,Phone Call,12/29/2022 01:32:00 PM,12/30/2022 12:56:32 PM,12/30/2022 12:56:32 PM,1236 S SPRINGFIELD AVE,,,,1236,S,SPRINGFIELD,AVE,false,false,,,29,24,,G025,1,10,1011,28,,13,5,12,1150499.515486692,1894014.758687699,41.865084001,-87.7229955,"(41.86508400094039, -87.72299550000191)",57,30,21569,33,14,24
SR22-02202229,No Water Complaint,WBJ,,DWM - Department of Water Management,Completed,Mobile Device,12/29/2022 01:01:05 PM,12/29/2022 04:51:58 PM,12/29/2022 04:51:58 PM,6606 S WASHTENAW AVE,,,,6606,S,WASHTENAW,AVE,false,false,,,66,16,,J037,3,08,0831,6,,13,5,12,1159438.610063329,1860659.499652471,41.773374001,-87.691095,"(41.77337400094006, -87.69109500000191)",58,64,21867,382,31,16
SR22-02202097,No Water Complaint,WBJ,311 City Services,DWM - Department of Water Management,Canceled,Phone Call,12/29/2022 12:46:27 PM,12/29/2022 02:54:37 PM,12/29/2022 02:54:37 PM,7200 S PRAIRIE AVE,,,,7200,S,PRAIRIE,AVE,false,false,,,69,6,,Q039,2,03,0323,32,,12,5,12,1179188.899149153,1857286.285189284,41.763690001,-87.618798,"(41.763690000940024, -87.6187980000019)",61,67,21546,474,32,4
SR22-02201946,No Water Complaint,WBJ,311 City Services,DWM - Department of Water Management,Canceled,Phone Call,12/29/2022 12:29:55 PM,12/29/2022 02:51:46 PM,12/29/2022 02:51:46 PM,8250 S RHODES AVE,,,,8250,S,RHODES,AVE,false,false,,,44,6,,R041,3,06,0631,45,,12,5,12,1181264.306182352,1850206.229887678,41.744214001,-87.611409,"(41.74421400093997, -87.6114090000019)",61,40,21546,140,32,4
SR22-02201824,No Water Complaint,WBJ,311 City Services,DWM - Department of Water Management,Completed,Phone Call,12/29/2022 12:17:59 PM,12/29/2022 01:19:52 PM,12/29/2022 01:19:52 PM,3943 N BROADWAY,,,,3943,N,BROADWAY,,false,false,,,6,46,,N013,2,19,1923,38,,12,5,12,1170111.858129915,1926580.111915707,41.954040001,-87.650046,"(41.95404000094069, -87.65004600000192)",53,57,21186,83,39,46
SR22-02201821,No Water Complaint,WBJ,311 City Services,DWM - Department of Water Management,Completed,Phone Call,12/29/2022 12:17:47 PM,12/29/2022 01:17:56 PM,12/29/2022 01:17:56 PM,3945 N BROADWAY,,,,3945,N,BROADWAY,,false,false,,,6,46,,N013,2,19,1923,38,,12,5,12,1170104.356965976,1926599.731156827,41.954094001,-87.650073,"(41.95409400094069, -87.6500730000019)",53,57,21186,83,39,46
SR22-02201813,No Water Complaint,WBJ,311 City Services,DWM - Department of Water Management,Completed,Phone Call,12/29/2022 12:17:30 PM,12/29/2022 01:18:48 PM,12/29/2022 01:18:48 PM,3939 N BROADWAY,,,,3939,N,BROADWAY,,false,false,,,6,46,,N013,2,19,1923,38,,12,5,12,1170141.549075245,1926540.99056739,41.953932001,-87.649938,"(41.95393200094073, -87.6499380000019)",53,57,21186,83,39,46
SR22-02201484,No Water Complaint,WBJ,311 City Services,DWM - Department of Water Management,Completed,Phone Call,12/29/2022 11:34:55 AM,12/29/2022 12:16:39 PM,12/29/2022 12:16:39 PM,6482 N NEWARK AVE,,,,6482,N,NEWARK,AVE,false,false,,,10,41,,Y106,1,16,1611,11,,11,5,12,1129312.954383995,1942840.209593074,41.999454001,-87.7996575,"(41.999454000940865, -87.7996575000019)",17,36,22243,657,29,41
SR22-02201391,No Water Complaint,WBJ,311 City Services,DWM - Department of Water Management,Completed,Phone Call,12/29/2022 11:24:47 AM,12/29/2022 05:41:46 PM,12/29/2022 05:41:46 PM,6430 S ASHLAND AVE,,,,6430,S,ASHLAND,AVE,false,false,,,67,15,,L037,2,07,0725,22,,11,5,12,1166667.671095125,1861934.657142627,41.776722001,-87.6645585,"(41.77672200094006, -87.66455850000192)",23,65,22257,280,3,15
SR22-02201329,No Water Complaint,WBJ,311 City Services,DWM - Department of Water Management,Completed,Phone Call,12/29/2022 11:16:31 AM,12/30/2022 12:41:57 PM,12/30/2022 12:41:57 PM,4223 S WASHTENAW AVE,,,,4223,S,WASHTENAW,AVE,false,false,,,58,12,,J031,2,09,0921,9,,11,5,12,1159137.961973412,1876436.00015502,41.816673001,-87.6917655,"(41.81667300094021, -87.69176550000192)",56,55,22248,641,3,12
SR22-02201218,No Water Complaint,WBJ,311 City Services,DWM - Department of Water Management,Completed,Phone Call,12/29/2022 11:02:25 AM,12/30/2022 11:43:58 AM,12/30/2022 11:43:58 AM,1709 W 78TH ST,,,,1709,W,78TH,ST,false,false,,,71,17,,L040,1,06,0611,38,,11,5,12,1166256.652760819,1852946.55751798,41.7520662,-87.666320788,"(41.75206620039717, -87.66632078842508)",59,70,21554,573,31,17
SR22-02201209,No Water Complaint,WBJ,311 City Services,DWM - Department of Water Management,Completed,Phone Call,12/29/2022 11:01:17 AM,01/01/2023 04:13:42 PM,01/01/2023 04:13:42 PM,237 W 108TH PL,,,,237,W,108TH,PL,false,false,,,49,9,,P048,1,05,0513,39,,11,5,12,1176471.01519077,1832915.168570964,41.696874001,-87.62949,"(41.696874000939786, -87.62949000000191)",19,45,21861,524,22,11
SR22-02201185,No Water Complaint,WBJ,311 City Services,DWM - Department of Water Management,Completed,Phone Call,12/29/2022 10:57:26 AM,12/29/2022 11:50:27 AM,12/29/2022 11:50:27 AM,3142 W CERMAK RD,,,,3142,W,CERMAK,RD,false,false,,,30,24,,I026,2,10,1022,39,,10,5,12,1155556.33967035,1889279.219507924,41.851989001,-87.704559,"(41.85198900094035, -87.70455900000192)",57,32,21569,201,14,24
SR22-02201181,No Water Complaint,WBJ,,DWM - Department of Water Management,Completed,Internet,12/29/2022 10:57:01 AM,12/29/2022 11:38:58 AM,12/29/2022 11:38:58 AM,1712 N ROCKWELL ST,,,,1712,N,ROCKWELL,ST,false,false,,,24,26,,J018,2,14,1421,31,,10,5,12,1158700.516131592,1911368.758019494,41.912541001,-87.6924135,"(41.91254100094055, -87.6924135000019)",1,25,22535,299,41,26
SR22-02201047,No Water Complaint,WBJ,311 City Services,DWM - Department of Water Management,Completed,Phone Call,12/29/2022 10:35:57 AM,12/29/2022 12:49:27 PM,12/29/2022 12:49:27 PM,4111 S DREXEL AVE,,,,4111,S,DREXEL,AVE,false,false,,,36,4,,S031,1,02,0214,7,,10,5,12,1183051.576047661,1877679.566742128,41.819562001,-87.6040065,"(41.81956200094023, -87.6040065000019)",36,2,4301,220,10,9
SR22-02200982,No Water Complaint,WBJ,311 City Services,DWM - Department of Water Management,Completed,Phone Call,12/29/2022 10:25:57 AM,12/29/2022 05:12:15 PM,12/29/2022 05:12:15 PM,6124 S FRANCISCO AVE,,,,6124,S,FRANCISCO,AVE,false,false,,,66,15,,I036,2,08,0823,13,,10,5,12,1158021.042923059,1863771.240025512,41.781942001,-87.696207,"(41.78194200094013, -87.69620700000193)",58,64,21867,183,2,15
SR22-02200972,No Water Complaint,WBJ,311 City Services,DWM - Department of Water Management,Completed,Phone Call,12/29/2022 10:24:46 AM,12/30/2022 01:30:16 PM,12/30/2022 01:30:16 PM,7123 S HARVARD AVE,,,,7123,S,HARVARD,AVE,true,false,,SR22-02200970,69,6,,P039,3,07,0731,12,,10,5,12,1175280.809958979,1857601.799586528,41.764644001,-87.6331125,"(41.76464400094006, -87.6331125000019)",11,67,21559,494,32,4
SR22-02200971,No Water Complaint,WBJ,311 City Services,DWM - Department of Water Management,Completed,Phone Call,12/29/2022 10:24:33 AM,12/30/2022 09:30:23 AM,12/30/2022 09:30:23 AM,1217 S FAIRFIELD AVE,,,,1217,S,FAIRFIELD,AVE,false,false,,,29,28,,J025,2,10,1023,34,,10,5,12,1158299.115841534,1894376.528205637,41.865921001,-87.694353,"(41.865921000940396, -87.69435300000191)",43,30,14920,16,23,28
SR22-02200970,No Water Complaint,WBJ,311 City Services,DWM - Department of Water Management,Completed,Phone Call,12/29/2022 10:24:33 AM,12/30/2022 01:30:16 PM,12/30/2022 01:30:16 PM,7123 S HARVARD AVE,,,,7123,S,HARVARD,AVE,false,false,,,69,6,,P039,3,07,0731,12,,10,5,12,1175280.809958979,1857601.799586528,41.764644001,-87.6331125,"(41.76464400094006, -87.6331125000019)",11,67,21559,494,32,4
SR22-02200710,No Water Complaint,WBJ,311 City Services,DWM - Department of Water Management,Completed,Phone Call,12/29/2022 09:53:21 AM,12/29/2022 10:59:25 AM,12/29/2022 10:59:25 AM,5000 S CHAMPLAIN AVE,,,,5000,S,CHAMPLAIN,AVE,false,false,,,38,20,,R033,2,02,0223,8,,9,5,12,1181385.189846059,1871909.454299232,41.803767001,-87.6102975,"(41.80376700094015, -87.6102975000019)",10,4,21192,165,10,20
SR22-02200560,No Water Complaint,WBJ,311 City Services,DWM - Department of Water Management,Completed,Phone Call,12/29/2022 09:36:44 AM,12/29/2022 10:38:12 AM,12/29/2022 10:38:12 AM,5451 S BISHOP ST,,,,5451,S,BISHOP,ST,false,false,,,61,20,,M034,3,09,0934,21,,9,5,12,1167649.944804899,1868334.52455157,41.794263001,-87.660774,"(41.794263000940134, -87.66077400000191)",37,59,14924,790,4,20
SR22-02200539,No Water Complaint,WBJ,311 City Services,DWM - Department of Water Management,Completed,Phone Call,12/29/2022 09:34:05 AM,01/10/2023 08:36:14 AM,01/10/2023 08:36:14 AM,5310 W 51ST ST,,,,5310,W,51ST,ST,false,false,,,,,,,,,,,,9,5,12,1141773.44007273,1870319.284672075,41.800225859,-87.755614514,"(41.800225858990345, -87.75561451350761)",,,22268,,,
SR22-02200351,No Water Complaint,WBJ,311 City Services,DWM - Department of Water Management,Completed,Phone Call,12/29/2022 09:14:29 AM,12/30/2022 02:14:42 PM,12/30/2022 02:14:42 PM,8806 S KENWOOD AVE,,,,8806,S,KENWOOD,AVE,false,false,,,48,8,,T043,1,04,0412,35,,9,5,12,1186564.946933588,1846787.872146755,41.734710001,-87.592095,"(41.734710000939955, -87.5920950000019)",61,44,21546,490,35,10
SR22-02200313,No Water Complaint,WBJ,311 City Services,DWM - Department of Water Management,Completed,Phone Call,12/29/2022 09:09:56 AM,12/29/2022 10:23:49 AM,12/29/2022 10:23:49 AM,3310 W WABANSIA AVE,,,,3310,W,WABANSIA,AVE,false,false,,,23,26,,H018,2,14,1422,40,,9,5,12,1153728.884963617,1911164.867726123,41.912082001,-87.7106835,"(41.912082000940515, -87.71068350000192)",1,24,22535,390,49,26
SR22-02200287,No Water Complaint,WBJ,311 City Services,DWM - Department of Water Management,Completed,Phone Call,12/29/2022 09:06:07 AM,12/29/2022 10:13:04 AM,12/29/2022 10:13:04 AM,1934 W GARFIELD BLVD,,,,1934,W,GARFIELD,BLVD,false,false,,,61,16,,L034,3,09,0932,2,,9,5,12,1164273.565339022,1868218.287750703,41.794015852,-87.673158351,"(41.79401585154337, -87.67315835060512)",37,59,14924,767,2,16
SR22-02200159,No Water Complaint,WBJ,311 City Services,DWM - Department of Water Management,Completed,Phone Call,12/29/2022 08:49:09 AM,12/29/2022 11:12:27 AM,12/29/2022 11:12:27 AM,7478 N ROGERS AVE,,,,7478,N,ROGERS,AVE,false,false,,,1,49,,L004,2,24,2422,5,,8,5,12,1163860.329869315,1949890.157726881,42.018138001,-87.672366,"(42.018138000940915, -87.6723660000019)",9,10,21853,489,5,49
SR22-02200144,No Water Complaint,WBJ,311 City Services,DWM - Department of Water Management,Completed,Phone Call,12/29/2022 08:46:31 AM,12/29/2022 02:06:52 PM,12/29/2022 02:06:52 PM,3118 N KEDZIE AVE,,,,3118,N,KEDZIE,AVE,false,false,,,21,35,,H015,1,14,1412,1,,8,5,12,1154427.632990126,1920661.653288683,41.938128001,-87.707862,"(41.938128000940644, -87.7078620000019)",39,22,21538,216,12,35
SR22-02200134,No Water Complaint,WBJ,311 City Services,DWM - Department of Water Management,Completed,Phone Call,12/29/2022 08:45:05 AM,12/29/2022 09:50:54 AM,12/29/2022 09:50:54 AM,8610 S EXCHANGE AVE,,,,8610,S,EXCHANGE,AVE,false,false,,,46,10,,X042,2,04,0423,27,,8,5,12,1197229.76829014,1848367.887360163,41.738787001,-87.552972,"(41.73878700093995, -87.5529720000019)",25,42,21202,226,47,6
SR22-02200039,No Water Complaint,WBJ,311 City Services,DWM - Department of Water Management,Completed,Phone Call,12/29/2022 08:32:32 AM,01/01/2023 04:11:03 PM,01/01/2023 04:11:03 PM,3018 E CHELTENHAM PL,,,,3018,E,CHELTENHAM,PL,false,false,,,43,7,,X040,2,04,0421,21,,8,5,12,1197490.575433828,1853326.021992282,41.752386001,-87.5518515,"(41.75238600093997, -87.55185150000192)",24,39,22538,421,37,5
SR22-02200038,No Water Complaint,WBJ,311 City Services,DWM - Department of Water Management,Completed,Phone Call,12/29/2022 08:32:29 AM,12/29/2022 10:40:43 AM,12/29/2022 10:40:43 AM,7138 N OLEANDER AVE,,,,7138,N,OLEANDER,AVE,false,false,,,9,41,,X105,1,16,1611,4,,8,5,12,1124944.439980204,1946952.463013965,42.010812001,-87.815637,"(42.0108120009409, -87.81563700000191)",17,77,22243,654,29,41
SR22-02199954,No Water Complaint,WBJ,311 City Services,DWM - Department of Water Management,Completed,Phone Call,12/29/2022 08:21:30 AM,12/29/2022 08:31:14 AM,12/29/2022 08:31:14 AM,717 E 43RD ST,,,,717,E,43RD,ST,false,false,,,38,4,,R032,2,02,0221,29,,8,5,12,1181841.420060424,1876590.274342555,41.816601001,-87.6084795,"(41.81660100094022, -87.60847950000192)",36,4,4301,161,10,9
SR22-02199881,No Water Complaint,WBJ,311 City Services,DWM - Department of Water Management,Completed,Phone Call,12/29/2022 08:12:40 AM,01/12/2023 05:39:46 AM,01/12/2023 05:39:46 AM,300 E 136TH PL,,,,300,E,136TH,PL,false,false,,,54,10,,Q055,3,05,0533,26,,8,5,12,1180651.640806777,1814855.573293765,41.647221001,-87.6147345,"(41.6472210009396, -87.6147345000019)",47,51,4460,10,43,6
SR22-02199865,No Water Complaint,WBJ,311 City Services,DWM - Department of Water Management,Completed,Phone Call,12/29/2022 08:10:19 AM,12/29/2022 08:58:05 AM,12/29/2022 08:58:05 AM,705 E 43RD ST,,,,705,E,43RD,ST,false,false,,,38,4,,R032,2,02,0221,29,,8,5,12,1181744.512804298,1876589.45707839,41.816601001,-87.608835,"(41.816601000940246, -87.6088350000019)",36,4,4301,161,10,9
SR22-02199816,No Water Complaint,WBJ,311 City Services,DWM - Department of Water Management,Completed,Phone Call,12/29/2022 08:04:38 AM,12/29/2022 10:04:37 PM,12/29/2022 10:04:38 PM,2253 W 111TH ST,,,,2253,W,111TH,ST,false,false,,,75,19,,K049,1,22,2212,14,,8,5,12,1163122.567758372,1830809.274226662,41.691384001,-87.678423,"(41.69138400093976, -87.67842300000191)",13,74,22212,378,42,19
SR22-02199234,No Water Complaint,WBJ,311 City Services,DWM - Department of Water Management,Completed,Phone Call,12/29/2022 03:54:03 AM,01/01/2023 04:08:15 PM,01/01/2023 04:08:15 PM,7601 S DREXEL AVE,,,,7601,S,DREXEL,AVE,false,false,,,69,8,,S040,2,06,0624,26,,3,5,12,1183565.099138789,1854790.451597282,41.756740309,-87.602836125,"(41.75674030874407, -87.60283612539479)",61,67,21546,497,35,10
SR22-02198519,No Water Complaint,WBJ,,DWM - Department of Water Management,Completed,Internet,12/28/2022 07:38:03 PM,12/28/2022 09:08:42 PM,12/28/2022 09:08:42 PM,1341 N WESTERN AVE,,,,1341,N,WESTERN,AVE,false,false,,,24,1,,K019,2,14,1424,14,,19,4,12,1160240.690310592,1909031.98753035,41.906097001,-87.68682,"(41.90609700094055, -87.68682000000189)",4,25,21560,516,41,1
SR22-02198427,No Water Complaint,WBJ,,DWM - Department of Water Management,Completed,Internet,12/28/2022 07:07:33 PM,01/01/2023 04:04:38 PM,01/01/2023 04:04:38 PM,5645 S HARPER AVE,,,,5645,S,HARPER,AVE,false,false,,,41,5,,T035,3,02,0235,8,,19,4,12,1187326.316314514,1867666.933366522,41.791986001,-87.5886435,"(41.79198600094014, -87.58864350000191)",60,8,22260,477,33,3
SR22-02198351,No Water Complaint,WBJ,311 City Services,DWM - Department of Water Management,Completed,Phone Call,12/28/2022 06:46:08 PM,12/30/2022 10:32:28 AM,12/30/2022 10:32:28 AM,11551 S LA SALLE ST,,,,11551,S,LA SALLE,ST,false,false,,,53,9,,P050,2,05,0522,9,,18,4,12,1177412.186169122,1828157.464603648,41.683797001,-87.626187,"(41.68379700093974, -87.62618700000192)",19,50,21861,255,22,11
SR22-02198342,No Water Complaint,WBJ,,DWM - Department of Water Management,Completed,Internet,12/28/2022 06:43:50 PM,12/28/2022 06:55:00 PM,12/28/2022 06:55:00 PM,6806 S PERRY AVE,,,,6806,S,PERRY,AVE,false,false,,,69,6,,P038,2,07,0722,18,,18,4,12,1176388.987583404,1859759.082517685,41.770539001,-87.628986,"(41.77053900094008, -87.62898600000192)",11,67,21559,513,32,4
SR22-02198335,No Water Complaint,WBJ,311 City Services,DWM - Department of Water Management,Completed,Phone Call,12/28/2022 06:41:41 PM,12/28/2022 11:09:24 PM,12/28/2022 11:09:24 PM,5036 N SHERIDAN RD,,,,5036,N,SHERIDAN,RD,false,false,,,3,48,,N010,2,20,2024,21,,18,4,12,1168603.88860681,1933987.143153003,41.974398001,-87.655374,"(41.97439800094078, -87.6553740000019)",15,31,22616,634,16,48
SR22-02198269,No Water Complaint,WBJ,,DWM - Department of Water Management,Completed,Mobile Device,12/28/2022 06:25:58 PM,12/29/2022 06:49:57 AM,12/29/2022 06:49:57 AM,7526 S CARPENTER ST,,,,7526,S,CARPENTER,ST,false,false,,,71,17,,N040,1,06,0612,22,,18,4,12,1170535.285175374,1854700.4438283,41.756787001,-87.6505905,"(41.756787000940015, -87.65059050000193)",59,70,21554,572,31,17
SR22-02198222,No Water Complaint,WBJ,DWM - Department of Water Management,DWM - Department of Water Management,Completed,Phone Call,12/28/2022 06:13:45 PM,12/30/2022 04:17:58 PM,12/30/2022 04:17:58 PM,757 E OAKWOOD BLVD,,,,757,E,OAKWOOD,BLVD,false,false,,,38,4,,R031,1,02,0214,32,,18,4,12,1182078.423363571,1878740.539901494,41.822496001,-87.6075435,"(41.82249600094025, -87.6075435000019)",36,4,4301,583,10,9
SR22-02198166,No Water Complaint,WBJ,311 City Services,DWM - Department of Water Management,Completed,Phone Call,12/28/2022 06:00:07 PM,01/19/2023 09:14:27 AM,01/19/2023 09:14:27 AM,1648 S CENTRAL PARK AVE,,,,1648,S,CENTRAL PARK,AVE,false,false,,,29,24,,G026,1,10,1014,2,,18,4,12,1152569.942134688,1891284.423010024,41.857551001,-87.715467,"(41.85755100094039, -87.71546700000191)",57,30,21569,800,14,24
SR22-02198159,No Water Complaint,WBJ,,DWM - Department of Water Management,Completed,Internet,12/28/2022 05:58:29 PM,12/29/2022 12:43:48 PM,12/29/2022 12:43:48 PM,1828 S ALLPORT ST,,,,1828,S,ALLPORT,ST,false,false,,,31,25,,M026,3,12,1233,28,,17,4,12,1168260.276108932,1891225.487068976,41.857065001,-87.657876,"(41.85706500094037, -87.6578760000019)",43,33,14920,365,26,25
SR22-02198092,No Water Complaint,WBJ,311 City Services,DWM - Department of Water Management,Completed,Phone Call,12/28/2022 05:36:10 PM,12/28/2022 10:59:47 PM,12/28/2022 10:59:47 PM,1613 N LECLAIRE AVE,,,,1613,N,LECLAIRE,AVE,false,false,,,25,37,,D018,3,25,2533,22,,17,4,12,1142373.539705818,1910330.852362911,41.910012001,-87.752421,"(41.91001200094055, -87.75242100000193)",2,26,22615,523,45,37
SR22-02197988,No Water Complaint,WBJ,311 City Services,DWM - Department of Water Management,Completed,Phone Call,12/28/2022 05:28:58 PM,12/28/2022 08:45:44 PM,12/28/2022 08:45:44 PM,5432 W POTOMAC AVE,,,,5432,W,POTOMAC,AVE,false,false,,,25,37,,C019,3,25,2532,5,,17,4,12,1139667.038375312,1908213.643225859,41.904252001,-87.7624155,"(41.90425200094055, -87.76241550000192)",5,26,4299,599,45,37
SR22-02197938,No Water Complaint,WBJ,311 City Services,DWM - Department of Water Management,Canceled,Phone Call,12/28/2022 05:25:35 PM,12/29/2022 01:22:26 PM,12/29/2022 01:22:26 PM,4555 S MC DOWELL AVE,,,,4555,S,MC DOWELL,AVE,false,false,,,61,15,,M032,2,09,0924,1,,17,4,12,1167371.784631453,1874406.440506828,41.810931001,-87.66162,"(41.810931000940215, -87.6616200000019)",37,59,14924,123,3,15
SR22-02197836,No Water Complaint,WBJ,311 City Services,DWM - Department of Water Management,Canceled,Phone Call,12/28/2022 04:47:52 PM,12/28/2022 10:34:57 PM,12/28/2022 10:34:57 PM,12234 S PRINCETON AVE,,,,12234,S,PRINCETON,AVE,true,false,,SR22-02189563,53,9,,P051,2,05,0523,3,,16,4,12,1176412.883165596,1823626.58159988,41.671386001,-87.6299805,"(41.6713860009397, -87.6299805000019)",19,50,21861,60,22,11
SR22-02197799,No Water Complaint,WBJ,311 City Services,DWM - Department of Water Management,Completed,Phone Call,12/28/2022 04:36:52 PM,12/29/2022 10:51:48 AM,12/29/2022 10:51:48 AM,2357 S KENNETH AVE,,,,2357,S,KENNETH,AVE,false,false,,,29,22,,E027,1,10,1013,21,,16,4,12,1147200.379586857,1887750.208913171,41.847957001,-87.735267,"(41.847957000940355, -87.73526700000191)",57,30,21569,125,28,22
SR22-02197774,No Water Complaint,WBJ,311 City Services,DWM - Department of Water Management,Completed,Phone Call,12/28/2022 04:26:49 PM,12/30/2022 07:57:52 AM,12/30/2022 07:57:52 AM,3204 N OAKLEY AVE,,,,3204,N,OAKLEY,AVE,false,false,,,5,32,,K014,2,19,1921,19,,16,4,12,1160455.840313523,1921269.660642845,41.939673583,-87.685690161,"(41.939673582728844, -87.68569016113148)",39,46,21538,615,40,32
SR22-02197679,No Water Complaint,WBJ,311 City Services,DWM - Department of Water Management,Completed,Phone Call,12/28/2022 04:01:33 PM,12/28/2022 10:47:04 PM,12/28/2022 10:47:04 PM,1401 N ASHLAND AVE,,,,1401,N,ASHLAND,AVE,true,false,,SR22-02195277,24,1,,M019,3,14,1433,8,,16,4,12,1165555.299080873,1909453.105069281,41.907141001,-87.6672855,"(41.90714100094053, -87.66728550000191)",49,25,21560,483,11,1
SR22-02197361,No Water Complaint,WBJ,311 City Services,DWM - Department of Water Management,Completed,Phone Call,12/28/2022 03:08:12 PM,12/28/2022 03:13:37 PM,12/28/2022 03:13:37 PM,4560 S MC DOWELL AVE,,,,4560,S,MC DOWELL,AVE,false,false,,,61,15,,M032,2,09,0924,1,,15,4,12,1167231.573027631,1874451.261520637,41.811057001,-87.662133,"(41.811057000940195, -87.66213300000192)",37,59,14924,123,3,15
SR22-02197208,No Water Complaint,WBJ,311 City Services,DWM - Department of Water Management,Completed,Phone Call,12/28/2022 02:42:39 PM,12/28/2022 05:05:23 PM,12/28/2022 05:05:23 PM,932 W 19TH ST,,,,932,W,19TH,ST,false,false,,,31,25,,N026,3,12,1235,12,,14,4,12,1170524.957828633,1891187.65621485,41.856912001,-87.6495645,"(41.85691200094035, -87.64956450000192)",43,33,14920,250,26,25
SR22-02197168,No Water Complaint,WBJ,311 City Services,DWM - Department of Water Management,Completed,Phone Call,12/28/2022 02:37:25 PM,01/01/2023 03:55:25 PM,01/01/2023 03:55:25 PM,6337 S ST LAWRENCE AVE,,,,6337,S,ST LAWRENCE,AVE,true,false,,SR22-02195485,42,20,,R037,1,03,0312,33,,14,4,12,1181407.545063892,1862975.532590944,41.779251001,-87.610491,"(41.77925100094009, -87.61049100000191)",60,9,22260,332,4,20
SR22-02197155,No Water Complaint,WBJ,311 City Services,DWM - Department of Water Management,Completed,Phone Call,12/28/2022 02:35:24 PM,12/29/2022 06:43:25 AM,12/29/2022 06:43:25 AM,6301 S WENTWORTH AVE,,,,6301,S,WENTWORTH,AVE,false,false,,,69,20,,P037,1,03,0312,35,,14,4,12,1176108.509106229,1863131.652662598,41.779800001,-87.629913,"(41.77980000094005, -87.62991300000192)",11,67,21559,122,4,20
SR22-02197134,No Water Complaint,WBJ,,DWM - Department of Water Management,Completed,Mobile Device,12/28/2022 02:31:26 PM,12/28/2022 03:46:05 PM,12/28/2022 03:46:05 PM,8938 S EXCHANGE AVE,,,,8938,S,EXCHANGE,AVE,false,false,,,46,10,,X043,2,04,0423,34,,14,4,12,1197236.923852483,1846088.500166084,41.732532001,-87.5530215,"(41.732532000939905, -87.5530215000019)",25,42,21202,175,47,6
SR22-02197116,No Water Complaint,WBJ,311 City Services,DWM - Department of Water Management,Completed,Phone Call,12/28/2022 02:29:09 PM,12/29/2022 11:56:37 PM,12/29/2022 11:56:37 PM,4943 S CHAMPLAIN AVE,,,,4943,S,CHAMPLAIN,AVE,false,false,,,38,4,,R033,2,02,0223,3,,14,4,12,1181515.267661624,1872199.169868638,41.804559001,-87.6098115,"(41.804559000940166, -87.6098115000019)",10,4,21192,165,10,9
SR22-02197045,No Water Complaint,WBJ,311 City Services,DWM - Department of Water Management,Completed,Phone Call,12/28/2022 02:22:32 PM,12/28/2022 03:52:30 PM,12/28/2022 03:52:30 PM,13500 S BRANDON AVE,,,,13500,S,BRANDON,AVE,false,false,,,55,10,,X055,3,04,0433,16,,14,4,12,1199377.790532774,1815999.741875959,41.649912001,-87.546186,"(41.649912000939594, -87.5461860000019)",26,52,22250,787,47,6
SR22-02196999,No Water Complaint,WBJ,311 City Services,DWM - Department of Water Management,Completed,Phone Call,12/28/2022 02:15:29 PM,12/28/2022 10:56:45 PM,12/28/2022 10:56:45 PM,1418 N KILDARE AVE,,,,1418,N,KILDARE,AVE,false,false,,,23,36,,F019,3,25,2534,4,,14,4,12,1147381.727563143,1909191.15346021,41.906790001,-87.734052,"(41.906790000940546, -87.73405200000191)",5,24,4299,286,49,36
SR22-02196915,No Water Complaint,WBJ,,DWM - Department of Water Management,Canceled,Mobile Device,12/28/2022 02:02:58 PM,12/28/2022 11:19:17 PM,12/28/2022 11:19:17 PM,2241 S HAMLIN AVE,,,,2241,S,HAMLIN,AVE,false,false,,,30,22,,G027,1,10,1013,19,,14,4,12,1151460.712236057,1888675.634403933,41.850414001,-87.719607,"(41.85041400094035, -87.7196070000019)",57,32,21569,754,28,22
SR22-02196834,No Water Complaint,WBJ,311 City Services,DWM - Department of Water Management,Completed,Phone Call,12/28/2022 01:51:31 PM,12/28/2022 10:54:18 PM,12/28/2022 10:54:18 PM,1707 N HARDING AVE,,,,1707,N,HARDING,AVE,false,false,,,23,26,,G018,3,25,2535,47,,13,4,12,1149859.755732862,1911114.14199074,41.912019001,-87.724899,"(41.91201900094057, -87.7248990000019)",1,24,22535,391,49,26
SR22-02196781,No Water Complaint,WBJ,311 City Services,DWM - Department of Water Management,Completed,Phone Call,12/28/2022 01:42:54 PM,12/28/2022 04:44:03 PM,12/28/2022 04:44:03 PM,1819 W CORTLAND ST,,,,1819,W,CORTLAND,ST,false,false,,,22,32,,L018,3,14,1434,31,,13,4,12,1163838.005620817,1912614.681160417,41.915853001,-87.6735045,"(41.91585300094058, -87.6735045000019)",4,23,21560,179,40,32
SR22-02196775,No Water Complaint,WBJ,311 City Services,DWM - Department of Water Management,Completed,Phone Call,12/28/2022 01:42:15 PM,12/29/2022 03:57:05 AM,12/29/2022 03:57:05 AM,7932 S KINGSTON AVE,,,,7932,S,KINGSTON,AVE,false,false,,,46,7,,W041,2,04,0422,19,,13,4,12,1194480.049541843,1852718.347169255,41.750793001,-87.5629035,"(41.75079300094001, -87.56290350000191)",25,42,21202,478,37,5
SR22-02196764,No Water Complaint,WBJ,311 City Services,DWM - Department of Water Management,Canceled,Phone Call,12/28/2022 01:41:00 PM,12/28/2022 01:54:20 PM,12/28/2022 01:54:20 PM,7932 S KINGSTON AVE,,,,7932,S,KINGSTON,AVE,false,false,,,46,7,,W041,2,04,0422,19,,13,4,12,1194480.049541843,1852718.347169255,41.750793001,-87.5629035,"(41.75079300094001, -87.56290350000191)",25,42,21202,478,37,5
SR22-02196741,No Water Complaint,WBJ,311 City Services,DWM - Department of Water Management,Completed,Phone Call,12/28/2022 01:38:24 PM,12/28/2022 02:33:34 PM,12/28/2022 02:33:34 PM,3449 N OKETO AVE,,,,3449,N,OKETO,AVE,false,false,,,17,38,,X114,3,16,1631,6,,13,4,12,1126258.329172308,1922201.55950905,41.942871001,-87.8113575,"(41.94287100094064, -87.81135750000193)",52,17,22254,458,19,38
SR22-02196731,No Water Complaint,WBJ,311 City Services,DWM - Department of Water Management,Completed,Phone Call,12/28/2022 01:36:03 PM,12/28/2022 02:35:09 PM,12/28/2022 02:35:09 PM,215 W 112TH PL,,,,215,W,112TH,PL,false,false,,,49,9,,P049,2,05,0522,37,,13,4,12,1176772.847453539,1830274.193367821,41.689620001,-87.628464,"(41.689620000939755, -87.62846400000191)",19,45,21861,660,22,11
SR22-02196622,No Water Complaint,WBJ,311 City Services,DWM - Department of Water Management,Completed,Phone Call,12/28/2022 01:18:32 PM,12/28/2022 03:49:29 PM,12/28/2022 03:49:29 PM,249 W CERMAK RD,,,,249,W,CERMAK,RD,false,false,,,34,11,,P027,1,09,0914,6,,13,4,12,1174798.994236481,1889651.06149502,41.852601001,-87.6339225,"(41.85260100094036, -87.6339225000019)",40,35,21194,3,26,7
SR22-02196614,No Water Complaint,WBJ,311 City Services,DWM - Department of Water Management,Completed,Phone Call,12/28/2022 01:17:50 PM,12/29/2022 04:55:06 PM,12/29/2022 04:55:06 PM,4628 S DREXEL AVE,,,,4628,S,DREXEL,AVE,false,false,,,39,4,,S032,2,02,0221,12,,13,4,12,1182847.408559608,1874414.440088118,41.810607001,-87.604857,"(41.8106070009402, -87.6048570000019)",36,5,4301,398,10,9
SR22-02196543,No Water Complaint,WBJ,DWM - Department of Water Management,DWM - Department of Water Management,Completed,Phone Call,12/28/2022 01:08:15 PM,12/28/2022 02:16:04 PM,12/28/2022 02:16:04 PM,5452 S LAFLIN ST,,,,5452,S,LAFLIN,ST,false,false,,,61,16,,M034,3,09,0934,10,,13,4,12,1167211.742554192,1868347.499085272,41.794308001,-87.6623805,"(41.79430800094014, -87.66238050000192)",37,59,14924,790,2,16
SR22-02196513,No Water Complaint,WBJ,311 City Services,DWM - Department of Water Management,Completed,Phone Call,12/28/2022 01:04:43 PM,12/28/2022 02:29:23 PM,12/28/2022 02:29:23 PM,6301 N WINTHROP AVE,,,,6301,N,WINTHROP,AVE,false,false,,,77,48,,N007,3,24,2433,27,,13,4,12,1167812.098385941,1942062.449869216,41.996574001,-87.6580515,"(41.996574000940846, -87.6580515000019)",14,76,4451,212,16,48
SR22-02196481,No Water Complaint,WBJ,311 City Services,DWM - Department of Water Management,Completed,Phone Call,12/28/2022 01:00:20 PM,12/28/2022 10:09:58 PM,12/28/2022 10:09:58 PM,619 E 87TH PL,,,,619,E,87TH,PL,false,false,,,44,8,,R043,3,06,0632,13,,13,4,12,1181992.251185677,1847037.552709259,41.735502001,-87.6088395,"(41.73550200093993, -87.6088395000019)",61,40,21546,407,32,10
SR22-02196440,No Water Complaint,WBJ,311 City Services,DWM - Department of Water Management,Completed,Phone Call,12/28/2022 12:55:12 PM,12/28/2022 01:37:18 PM,12/28/2022 01:37:18 PM,8955 S JUSTINE ST,,,,8955,S,JUSTINE,ST,false,false,,,73,21,,M043,2,22,2221,32,,12,4,12,1167652.074891237,1845123.935356057,41.730570001,-87.661431,"(41.73057000093991, -87.6614310000019)",59,72,21554,195,13,21
SR22-02196375,No Water Complaint,WBJ,311 City Services,DWM - Department of Water Management,Completed,Phone Call,12/28/2022 12:45:21 PM,12/28/2022 03:16:37 PM,12/28/2022 03:16:37 PM,2206 N MAPLEWOOD AVE,,,,2206,N,MAPLEWOOD,AVE,false,false,,,22,1,,J017,3,14,1431,43,,12,4,12,1158877.095189792,1914781.062330992,41.921901001,-87.691671,"(41.92190100094059, -87.6916710000019)",1,23,22535,323,41,1
SR22-02196374,No Water Complaint,WBJ,311 City Services,DWM - Department of Water Management,Completed,Phone Call,12/28/2022 12:45:06 PM,12/28/2022 10:51:58 PM,12/28/2022 10:51:58 PM,4334 N CALIFORNIA AVE,,,,4334,N,CALIFORNIA,AVE,false,false,,,16,33,,I012,2,17,1724,23,,12,4,12,1156914.182914663,1928827.018503723,41.960484142,-87.6985011,"(41.9604841418949, -87.69850110040579)",39,16,21538,214,20,33
SR22-02196343,No Water Complaint,WBJ,311 City Services,DWM - Department of Water Management,Completed,Phone Call,12/28/2022 12:42:19 PM,12/29/2022 10:00:28 AM,12/29/2022 10:00:28 AM,13434 S AVENUE K,,,,13434,S,AVENUE K,,false,false,,,55,10,,Y055,3,04,0433,3,,12,4,12,1202348.507772366,1816358.309016585,41.650821001,-87.535305,"(41.65082100093962, -87.5353050000019)",26,52,22250,787,47,6
SR22-02196328,No Water Complaint,WBJ,311 City Services,DWM - Department of Water Management,Completed,Phone Call,12/28/2022 12:40:40 PM,12/28/2022 10:11:57 PM,12/28/2022 10:11:57 PM,7650 S EGGLESTON AVE,,,,7650,S,EGGLESTON,AVE,false,false,,,69,17,,O040,2,06,0621,15,,12,4,12,1174482.654160275,1853981.042837022,41.754726001,-87.6361455,"(41.75472600094002, -87.6361455000019)",59,67,21554,495,31,17
SR22-02196321,No Water Complaint,WBJ,311 City Services,DWM - Department of Water Management,Completed,Phone Call,12/28/2022 12:39:45 PM,12/30/2022 10:20:26 AM,12/30/2022 10:20:26 AM,3419 S INDIANA AVE,,,,3419,S,INDIANA,AVE,false,false,,,35,3,,Q029,1,02,0211,7,,12,4,12,1178233.027650938,1882276.781894372,41.832288001,-87.621543,"(41.83228800094029, -87.6215430000019)",40,1,21194,190,9,8
SR22-02196198,No Water Complaint,WBJ,311 City Services,DWM - Department of Water Management,Completed,Phone Call,12/28/2022 12:22:46 PM,12/30/2022 10:12:58 AM,12/30/2022 10:12:58 AM,11044 S WESTERN AVE,,,,11044,S,WESTERN,AVE,false,false,,,75,19,,J048,1,22,2212,50,,12,4,12,1162237.784609714,1831271.556791038,41.692671001,-87.6816495,"(41.69267100093977, -87.68164950000192)",33,74,22212,314,42,19
SR22-02196191,No Water Complaint,WBJ,311 City Services,DWM - Department of Water Management,Completed,Phone Call,12/28/2022 12:22:17 PM,12/28/2022 03:45:36 PM,12/28/2022 03:45:36 PM,718 S ALBANY AVE,,,,718,S,ALBANY,AVE,false,false,,,27,24,,I024,3,11,1134,40,,12,4,12,1155764.721681354,1896640.512507026,41.872185001,-87.703596,"(41.872185000940426, -87.70359600000192)",28,28,21184,36,14,24
SR22-02196109,No Water Complaint,WBJ,311 City Services,DWM - Department of Water Management,Completed,Phone Call,12/28/2022 12:08:27 PM,12/28/2022 02:47:27 PM,12/28/2022 02:47:27 PM,456 N GREEN ST,,,,456,N,GREEN,ST,false,false,,,24,27,,N021,1,12,1214,1,,12,4,12,1170564.24059249,1903483.923284831,41.890653001,-87.6490605,"(41.89065300094049, -87.64906050000191)",49,25,22620,522,46,27
SR22-02196016,No Water Complaint,WBJ,Alderman,DWM - Department of Water Management,Completed,Alderman's Office,12/28/2022 11:54:31 AM,12/28/2022 12:42:24 PM,12/28/2022 12:42:24 PM,8955 S JUSTINE ST,,,,8955,S,JUSTINE,ST,false,false,,,73,21,,M043,2,22,2221,32,,11,4,12,1167652.074891237,1845123.935356057,41.730570001,-87.661431,"(41.73057000093991, -87.6614310000019)",59,72,21554,195,13,21
SR22-02195911,No Water Complaint,WBJ,311 City Services,DWM - Department of Water Management,Completed,Phone Call,12/28/2022 11:38:34 AM,12/28/2022 02:42:27 PM,12/28/2022 02:42:27 PM,1915 N DAMEN AVE,,,,1915,N,DAMEN,AVE,false,false,,,22,32,,L018,3,14,1434,31,,11,4,12,1162818.410242916,1912843.00477219,41.916501001,-87.677244,"(41.91650100094059, -87.6772440000019)",4,23,21560,179,40,32
SR22-02195880,No Water Complaint,WBJ,311 City Services,DWM - Department of Water Management,Completed,Phone Call,12/28/2022 11:34:03 AM,12/28/2022 02:39:18 PM,12/28/2022 02:39:18 PM,1415 W LUNT AVE,,,,1415,W,LUNT,AVE,false,false,,,1,49,,M005,3,24,2431,23,,11,4,12,1165447.237346157,1946488.127744781,42.008769001,-87.666624,"(42.00876900094088, -87.6666240000019)",9,10,21853,358,5,49
SR22-02195848,No Water Complaint,WBJ,311 City Services,DWM - Department of Water Management,Completed,Phone Call,12/28/2022 11:29:29 AM,12/28/2022 02:41:17 PM,12/28/2022 02:41:17 PM,1738 W 47TH ST,,,,1738,W,47TH,ST,false,false,,,61,15,,L032,2,09,0924,13,,11,4,12,1165375.687181725,1873613.623925672,41.808798001,-87.668964,"(41.808798000940186, -87.6689640000019)",37,59,14924,738,3,15
SR22-02195801,No Water Complaint,WBJ,311 City Services,DWM - Department of Water Management,Completed,Phone Call,12/28/2022 11:22:58 AM,12/28/2022 06:01:08 PM,12/28/2022 06:01:08 PM,8201 S EVANS AVE,,,,8201,S,EVANS,AVE,false,false,,,44,6,,R041,3,06,0631,45,,11,4,12,1182739.732184881,1850736.855319689,41.745636001,-87.6059865,"(41.74563600093996, -87.6059865000019)",61,40,21546,140,35,4
SR22-02195596,No Water Complaint,WBJ,311 City Services,DWM - Department of Water Management,Completed,Phone Call,12/28/2022 10:57:43 AM,12/28/2022 04:41:55 PM,12/28/2022 04:41:55 PM,1156 W WASHBURNE AVE,,,,1156,W,WASHBURNE,AVE,false,false,,,28,28,,N025,3,12,1232,4,,10,4,12,1168618.525144018,1894613.045040172,41.866353001,-87.656463,"(41.8663530009404, -87.65646300000189)",43,29,14920,760,26,28
SR22-02195544,No Water Complaint,WBJ,311 City Services,DWM - Department of Water Management,Completed,Phone Call,12/28/2022 10:52:18 AM,12/28/2022 12:18:29 PM,12/28/2022 12:18:29 PM,2537 W 101ST ST,,,,2537,W,101ST,ST,false,false,,,72,19,,J046,1,22,2211,53,,10,4,12,1161084.723603727,1837504.078283066,41.709798001,-87.6856995,"(41.709798000939834, -87.68569950000192)",33,71,4447,661,42,19
SR22-02195539,No Water Complaint,WBJ,311 City Services,DWM - Department of Water Management,Completed,Phone Call,12/28/2022 10:50:45 AM,12/30/2022 11:17:36 AM,12/30/2022 11:17:36 AM,8722 S BUFFALO AVE,,,,8722,S,BUFFALO,AVE,false,false,,,46,10,,Y043,2,04,0424,8,,10,4,12,1199477.951785736,1847647.147394429,41.736753001,-87.5447595,"(41.73675300093995, -87.54475950000192)",25,42,21202,509,47,6
SR22-02195532,No Water Complaint,WBJ,311 City Services,DWM - Department of Water Management,Completed,Phone Call,12/28/2022 10:49:07 AM,12/28/2022 12:27:58 PM,12/28/2022 12:27:58 PM,2605 W 79TH ST,,,,2605,W,79TH,ST,false,false,,,70,18,,J041,3,08,0835,12,,10,4,12,1160324.256173873,1852073.301240252,41.749794001,-87.6880845,"(41.749794000939964, -87.6880845000019)",8,69,4300,243,30,18
SR22-02195529,No Water Complaint,WBJ,311 City Services,DWM - Department of Water Management,Completed,Phone Call,12/28/2022 10:48:41 AM,12/28/2022 02:35:16 PM,12/28/2022 02:35:16 PM,506 S CICERO AVE,,,,506,S,CICERO,AVE,false,false,,,25,29,,D023,3,15,1533,6,,10,4,12,1144406.608505428,1897153.575394157,41.873814001,-87.745284,"(41.87381400094043, -87.74528400000192)",32,26,22216,69,7,29
SR22-02195518,No Water Complaint,WBJ,311 City Services,DWM - Department of Water Management,Completed,Phone Call,12/28/2022 10:47:19 AM,12/28/2022 06:29:42 PM,12/28/2022 06:29:42 PM,7544 W ADDISON ST,,,,7544,W,ADDISON,ST,false,false,,,17,38,,X113,3,16,1631,6,,10,4,12,1124932.014855569,1923079.049493052,41.945301001,-87.816213,"(41.945301000940674, -87.81621300000192)",52,17,22254,392,19,38
SR22-02195500,No Water Complaint,WBJ,311 City Services,DWM - Department of Water Management,Completed,Phone Call,12/28/2022 10:43:49 AM,12/28/2022 07:37:36 PM,12/28/2022 07:37:36 PM,10613 S EDBROOKE AVE,,,,10613,S,EDBROOKE,AVE,false,false,,,49,9,,Q047,1,05,0512,29,,10,4,12,1179210.583358815,1834541.496832679,41.701275001,-87.61941,"(41.70127500093983, -87.6194100000019)",19,45,21861,236,43,11
SR22-02195495,No Water Complaint,WBJ,,DWM - Department of Water Management,Completed,DWM,12/28/2022 10:42:55 AM,01/07/2023 10:12:34 AM,01/07/2023 10:12:34 AM,7952 S Dante ST,,,,7952,S,Dante,ST,false,false,,,45,8,,T041,1,04,0411,29,,10,4,12,1187168.273091906,1852306.3573931,41.749839001,-87.58971,"(41.74983900094001, -87.5897100000019)",61,41,21546,133,35,10
SR22-02195485,No Water Complaint,WBJ,311 City Services,DWM - Department of Water Management,Completed,Phone Call,12/28/2022 10:41:28 AM,01/01/2023 03:55:25 PM,01/01/2023 03:55:25 PM,6337 S ST LAWRENCE AVE,,,,6337,S,ST LAWRENCE,AVE,false,false,,,42,20,,R037,1,03,0312,33,,10,4,12,1181407.545063892,1862975.532590944,41.779251001,-87.610491,"(41.77925100094009, -87.61049100000191)",60,9,22260,332,4,20
SR22-02195433,No Water Complaint,WBJ,311 City Services,DWM - Department of Water Management,Completed,Phone Call,12/28/2022 10:35:43 AM,12/28/2022 02:55:21 PM,12/28/2022 02:55:21 PM,7932 S WABASH AVE,,,,7932,S,WABASH,AVE,false,false,,,44,6,,Q041,2,06,0623,41,,10,4,12,1177889.225307968,1852309.988604072,41.750064001,-87.623712,"(41.750064000939986, -87.62371200000192)",61,40,21546,406,32,4
SR22-02195409,No Water Complaint,WBJ,311 City Services,DWM - Department of Water Management,Canceled,Phone Call,12/28/2022 10:33:01 AM,12/29/2022 07:33:42 AM,12/29/2022 07:33:42 AM,4240 N CLARENDON AVE,,,,4240,N,CLARENDON,AVE,false,false,,,3,46,,N012,1,19,1915,35,,10,4,12,1169973.90008532,1928684.671271346,41.959818001,-87.6504915,"(41.95981800094073, -87.6504915000019)",53,31,21186,577,39,46
SR22-02195349,No Water Complaint,WBJ,311 City Services,DWM - Department of Water Management,Completed,Phone Call,12/28/2022 10:24:15 AM,12/28/2022 10:16:37 PM,12/28/2022 10:16:37 PM,4820 N ALBANY AVE,,,,4820,N,ALBANY,AVE,false,false,,,14,33,,I010,1,17,1713,2,,10,4,12,1154745.24663594,1931976.016472811,41.969169001,-87.7063905,"(41.96916900094075, -87.70639050000192)",20,14,21849,749,20,33
SR22-02195288,No Water Complaint,WBJ,311 City Services,DWM - Department of Water Management,Completed,Phone Call,12/28/2022 10:18:14 AM,12/28/2022 06:36:35 PM,12/28/2022 06:36:35 PM,7310 W BELMONT AVE,,,,7310,W,BELMONT,AVE,false,false,,,17,29,,X114,3,16,1631,32,,10,4,12,1126727.84304219,1920498.960011663,41.938191001,-87.80967,"(41.93819100094065, -87.80967000000192)",52,17,22254,458,7,29
SR22-02195277,No Water Complaint,WBJ,311 City Services,DWM - Department of Water Management,Completed,Phone Call,12/28/2022 10:17:08 AM,12/28/2022 10:47:04 PM,12/28/2022 10:47:04 PM,1401 N ASHLAND AVE,,,,1401,N,ASHLAND,AVE,false,false,,,24,1,,M019,3,14,1433,8,,10,4,12,1165555.299080873,1909453.105069281,41.907141001,-87.6672855,"(41.90714100094053, -87.66728550000191)",49,25,21560,483,11,1
SR22-02195234,No Water Complaint,WBJ,311 City Services,DWM - Department of Water Management,Completed,Phone Call,12/28/2022 10:10:29 AM,12/28/2022 08:26:08 PM,12/28/2022 08:26:08 PM,4328 S WOOD ST,,,,4328,S,WOOD,ST,false,false,,,61,15,,L032,2,09,0924,5,,10,4,12,1165013.514912315,1875870.572049724,41.814999001,-87.6702285,"(41.814999000940226, -87.67022850000191)",37,59,14924,706,3,15
SR22-02195221,No Water Complaint,WBJ,311 City Services,DWM - Department of Water Management,Canceled,Phone Call,12/28/2022 10:08:52 AM,12/28/2022 10:52:27 PM,12/28/2022 10:52:27 PM,6528 S ROSS AVE,,,,6528,S,ROSS,AVE,false,false,,,68,6,,P037,2,07,0722,29,,10,4,12,1175903.34853419,1861650.806432188,41.775741001,-87.6307095,"(41.77574100094008, -87.63070950000191)",11,66,21559,435,4,4
SR22-02195218,No Water Complaint,WBJ,311 City Services,DWM - Department of Water Management,Completed,Phone Call,12/28/2022 10:08:24 AM,12/28/2022 05:48:45 PM,12/28/2022 05:48:45 PM,9518 S GREENWOOD AVE,,,,9518,S,GREENWOOD,AVE,false,false,,,50,8,,S045,1,05,0511,22,,10,4,12,1185143.191381735,1841970.837887936,41.721525001,-87.5974545,"(41.721525000939906, -87.5974545000019)",19,47,21861,643,35,10
SR22-02195180,No Water Complaint,WBJ,311 City Services,DWM - Department of Water Management,Completed,Phone Call,12/28/2022 10:03:26 AM,12/28/2022 10:08:14 PM,12/28/2022 10:08:14 PM,7200 S PRAIRIE AVE,,,,7200,S,PRAIRIE,AVE,false,false,,,69,6,,Q039,2,03,0323,32,,10,4,12,1179188.899149153,1857286.285189284,41.763690001,-87.618798,"(41.763690000940024, -87.6187980000019)",61,67,21546,474,32,4
SR22-02195169,No Water Complaint,WBJ,311 City Services,DWM - Department of Water Management,Completed,Phone Call,12/28/2022 10:02:27 AM,12/29/2022 04:46:45 AM,12/29/2022 04:46:45 AM,3310 W WABANSIA AVE,,,,3310,W,WABANSIA,AVE,false,false,,,23,26,,H018,2,14,1422,40,,10,4,12,1153728.884963617,1911164.867726123,41.912082001,-87.7106835,"(41.912082000940515, -87.71068350000192)",1,24,22535,390,49,26
SR22-02195070,No Water Complaint,WBJ,311 City Services,DWM - Department of Water Management,Canceled,Phone Call,12/28/2022 09:49:01 AM,12/28/2022 11:10:04 PM,12/28/2022 11:10:04 PM,1941 S RACINE AVE,,,,1941,S,RACINE,AVE,false,false,,,31,25,,N026,3,12,1235,28,,9,4,12,1168738.232869885,1890625.772255449,41.855409001,-87.656139,"(41.85540900094039, -87.65613900000191)",43,33,14920,251,26,25
SR22-02195043,No Water Complaint,WBJ,311 City Services,DWM - Department of Water Management,Completed,Phone Call,12/28/2022 09:45:53 AM,12/28/2022 02:17:29 PM,12/28/2022 02:17:29 PM,1612 S THROOP ST,,,,1612,S,THROOP,ST,false,false,,,31,25,,M026,3,12,1233,24,,9,4,12,1167911.863368458,1892036.134215579,41.859297001,-87.6591315,"(41.85929700094038, -87.65913150000192)",43,33,14920,365,26,25
SR22-02194973,No Water Complaint,WBJ,311 City Services,DWM - Department of Water Management,Completed,Phone Call,12/28/2022 09:35:10 AM,12/30/2022 08:11:57 PM,12/30/2022 08:11:57 PM,11 S AUSTIN AVE,,,,11,S,AUSTIN,AVE,false,false,,,25,29,,B023,1,15,1513,19,,9,4,12,1136508.859869396,1899189.983703496,41.879547001,-87.7742325,"(41.87954700094045, -87.77423250000193)",32,26,22216,67,7,29
SR22-02194832,No Water Complaint,WBJ,311 City Services,DWM - Department of Water Management,Completed,Phone Call,12/28/2022 09:18:11 AM,12/28/2022 11:07:03 AM,12/28/2022 11:07:03 AM,750 E 84TH PL,,,,750,E,84TH,PL,false,false,,,44,6,,R042,3,06,0632,3,,9,4,12,1182908.417683849,1849088.566533509,41.741109001,-87.6054195,"(41.741109000939915, -87.6054195000019)",61,40,21546,140,32,4
SR22-02194799,No Water Complaint,WBJ,311 City Services,DWM - Department of Water Management,Canceled,Phone Call,12/28/2022 09:14:07 AM,12/28/2022 10:34:57 PM,12/28/2022 10:34:57 PM,12234 S PRINCETON AVE,,,,12234,S,PRINCETON,AVE,true,false,,SR22-02189563,53,9,,P051,2,05,0523,3,,9,4,12,1176412.883165596,1823626.58159988,41.671386001,-87.6299805,"(41.6713860009397, -87.6299805000019)",19,50,21861,60,22,11
SR22-02194784,No Water Complaint,WBJ,311 City Services,DWM - Department of Water Management,Completed,Phone Call,12/28/2022 09:12:12 AM,12/28/2022 08:28:31 PM,12/28/2022 08:28:31 PM,1934 W GARFIELD BLVD,Chicago,IL,,1934,W,GARFIELD,BLVD,false,false,,,61,16,,L034,3,09,0932,2,,9,4,12,1164273.565339022,1868218.287750703,41.794015852,-87.673158351,"(41.79401585154337, -87.67315835060512)",37,59,14924,767,2,16
SR22-02194749,No Water Complaint,WBJ,311 City Services,DWM - Department of Water Management,Canceled,Phone Call,12/28/2022 09:08:05 AM,12/28/2022 09:28:44 AM,12/28/2022 09:28:44 AM,2315 W OHIO ST,,,,2315,W,OHIO,ST,false,false,,,24,36,,K021,2,12,1221,28,,9,4,12,1160797.79031147,1903883.648462838,41.891958001,-87.6849165,"(41.8919580009405, -87.68491650000193)",28,25,21184,546,49,36
SR22-02194723,No Water Complaint,WBJ,311 City Services,DWM - Department of Water Management,Canceled,Phone Call,12/28/2022 09:04:12 AM,12/30/2022 09:37:03 AM,12/30/2022 09:37:03 AM,1309 S KEDZIE AVE,,,,1309,S,KEDZIE,AVE,false,false,,,29,24,,I025,2,10,1022,14,,9,4,12,1155305.394852676,1893750.962160795,41.864265001,-87.70536,"(41.864265000940385, -87.70536000000192)",57,30,21569,132,14,24
SR22-02194674,No Water Complaint,WBJ,311 City Services,DWM - Department of Water Management,Completed,Phone Call,12/28/2022 08:59:19 AM,12/28/2022 02:16:01 PM,12/28/2022 02:16:01 PM,1855 N DAMEN AVE,,,,1855,N,DAMEN,AVE,false,false,,,22,32,,L018,3,14,1434,36,,8,4,12,1162827.569934822,1912446.218908921,41.915412001,-87.6772215,"(41.91541200094057, -87.6772215000019)",4,23,21560,179,40,32
SR22-02194624,No Water Complaint,WBJ,311 City Services,DWM - Department of Water Management,Completed,Phone Call,12/28/2022 08:53:55 AM,12/28/2022 04:01:32 PM,12/28/2022 04:01:32 PM,316 S KILBOURN AVE,,,,316,S,KILBOURN,AVE,false,false,,,26,28,,E023,3,11,1131,16,,8,4,12,1146368.449851875,1898095.264546156,41.876361001,-87.738057,"(41.876361000940435, -87.73805700000192)",30,27,21572,716,23,28
SR22-02194614,No Water Complaint,WBJ,311 City Services,DWM - Department of Water Management,Completed,Phone Call,12/28/2022 08:52:20 AM,12/28/2022 09:01:47 PM,12/28/2022 09:01:47 PM,1741 W 17TH ST,,,,1741,W,17TH,ST,false,false,,,31,25,,L026,3,12,1234,19,,8,4,12,1164882.67376716,1891707.524655149,41.858460001,-87.67026,"(41.85846000094038, -87.67026000000192)",43,33,14920,343,26,25
SR22-02194543,No Water Complaint,WBJ,311 City Services,DWM - Department of Water Management,Completed,Phone Call,12/28/2022 08:42:16 AM,12/31/2022 07:07:05 PM,12/31/2022 07:07:05 PM,2278 S BLUE ISLAND AVE,,,,2278,S,BLUE ISLAND,AVE,false,false,,,31,25,,L027,3,10,1034,15,,8,4,12,1164993.142524712,1888992.727750048,41.851008001,-87.6699315,"(41.85100800094036, -87.66993150000191)",43,33,14920,126,26,25
SR22-02194452,No Water Complaint,WBJ,311 City Services,DWM - Department of Water Management,Completed,Phone Call,12/28/2022 08:29:55 AM,12/28/2022 02:17:46 PM,12/28/2022 02:17:46 PM,8016 S DREXEL AVE,,,,8016,S,DREXEL,AVE,false,false,,,44,8,,S041,3,06,0631,18,,8,4,12,1183546.182574156,1851944.076646353,41.748930001,-87.602994,"(41.74893000093996, -87.60299400000193)",61,40,21546,247,35,10
SR22-02194419,No Water Complaint,WBJ,311 City Services,DWM - Department of Water Management,Canceled,Phone Call,12/28/2022 08:24:50 AM,12/28/2022 10:47:47 PM,12/28/2022 10:47:47 PM,707 E 62ND ST,,,,707,E,62ND,ST,false,false,,,42,20,,R036,1,03,0313,1,,8,4,12,1182093.614237926,1864004.598427036,41.782059001,-87.607944,"(41.782059000940116, -87.60794400000192)",60,9,22260,471,4,20
SR22-02194282,No Water Complaint,WBJ,,DWM - Department of Water Management,Completed,Internet,12/28/2022 08:06:04 AM,12/28/2022 02:14:36 PM,12/28/2022 02:14:36 PM,7938 S INGLESIDE AVE,,,,7938,S,INGLESIDE,AVE,false,false,,,44,8,,S041,2,06,0624,54,,8,4,12,1183810.060093314,1852395.644810018,41.750163001,-87.602013,"(41.75016300094001, -87.60201300000192)",61,40,21546,247,35,10
SR22-02194194,No Water Complaint,WBJ,DWM - Department of Water Management,DWM - Department of Water Management,Completed,Phone Call,12/28/2022 07:49:18 AM,12/28/2022 09:50:25 AM,12/28/2022 09:50:25 AM,757 E OAKWOOD BLVD,,,,757,E,OAKWOOD,BLVD,false,false,,,38,4,,R031,1,02,0214,32,,7,4,12,1182078.423363571,1878740.539901494,41.822496001,-87.6075435,"(41.82249600094025, -87.6075435000019)",36,4,4301,583,10,9
SR22-02194179,No Water Complaint,WBJ,311 City Services,DWM - Department of Water Management,Completed,Phone Call,12/28/2022 07:46:31 AM,12/28/2022 02:13:08 PM,12/28/2022 02:13:08 PM,7754 S COLFAX AVE,,,,7754,S,COLFAX,AVE,false,false,,,43,7,,W040,2,04,0421,16,,7,4,12,1194801.678461044,1853826.518595811,41.753826001,-87.5616885,"(41.75382600093999, -87.56168850000192)",24,39,22538,246,37,5
SR22-02193987,No Water Complaint,WBJ,311 City Services,DWM - Department of Water Management,Completed,Phone Call,12/28/2022 07:12:30 AM,12/28/2022 12:58:46 PM,12/28/2022 12:58:46 PM,7744 S CHAMPLAIN AVE,,,,7744,S,CHAMPLAIN,AVE,false,false,,,69,6,,R040,2,06,0624,14,,7,4,12,1181841.197855759,1853602.340787284,41.753520001,-87.6091905,"(41.75352000094001, -87.6091905000019)",61,67,21546,496,32,4
SR22-02193967,No Water Complaint,WBJ,311 City Services,DWM - Department of Water Management,Completed,Phone Call,12/28/2022 07:09:33 AM,12/28/2022 02:10:08 PM,12/28/2022 02:10:08 PM,6814 S PERRY AVE,,,,6814,S,PERRY,AVE,false,false,,,69,6,,P038,2,07,0722,18,,7,4,12,1176389.256160232,1859726.287210893,41.770449001,-87.628986,"(41.77044900094008, -87.62898600000192)",11,67,21559,513,32,4
SR22-02193957,No Water Complaint,WBJ,311 City Services,DWM - Department of Water Management,Completed,Phone Call,12/28/2022 07:07:48 AM,12/28/2022 07:27:19 AM,12/28/2022 07:27:19 AM,6814 S PERRY AVE,,,,6814,S,PERRY,AVE,false,false,,,69,6,,P038,2,07,0722,18,,7,4,12,1176389.256160232,1859726.287210893,41.770449001,-87.628986,"(41.77044900094008, -87.62898600000192)",11,67,21559,513,32,4
SR22-02193877,No Water Complaint,WBJ,311 City Services,DWM - Department of Water Management,Completed,Phone Call,12/28/2022 06:51:11 AM,12/28/2022 09:29:18 AM,12/28/2022 09:29:18 AM,5343 N NEWCASTLE AVE,,,,5343,N,NEWCASTLE,AVE,false,false,,,10,41,,Z109,1,16,1613,30,,6,4,12,1130015.122933101,1935212.56848987,41.978511001,-87.79725,"(41.97851100094077, -87.7972500000019)",31,36,4448,699,29,41
SR22-02193799,No Water Complaint,WBJ,311 City Services,DWM - Department of Water Management,Canceled,Phone Call,12/28/2022 06:18:01 AM,12/28/2022 12:12:41 PM,12/28/2022 12:12:41 PM,7901 S WHIPPLE ST,,,,7901,S,WHIPPLE,ST,false,false,,,70,18,,I041,3,08,0835,16,,6,4,12,1157499.236771397,1851986.691837541,41.749614001,-87.698439,"(41.74961400093999, -87.69843900000191)",8,69,4300,243,30,18
SR22-02193740,No Water Complaint,WBJ,311 City Services,DWM - Department of Water Management,Completed,Phone Call,12/28/2022 05:38:22 AM,12/29/2022 10:08:43 PM,12/29/2022 10:08:43 PM,301 W 117TH ST,,,,301,W,117TH,ST,false,false,,,53,21,,P050,2,05,0522,14,,5,4,12,1176342.496158214,1827279.588429312,41.681412001,-87.630129,"(41.68141200093973, -87.63012900000192)",19,50,21861,255,22,21
SR22-02193737,No Water Complaint,WBJ,311 City Services,DWM - Department of Water Management,Canceled,Phone Call,12/28/2022 05:29:06 AM,12/28/2022 05:48:01 AM,12/28/2022 05:48:01 AM,5000 S CHAMPLAIN AVE,,,,5000,S,CHAMPLAIN,AVE,false,false,,,38,20,,R033,2,02,0223,8,,5,4,12,1181385.189846059,1871909.454299232,41.803767001,-87.6102975,"(41.80376700094015, -87.6102975000019)",10,4,21192,165,10,20
SR22-02193731,No Water Complaint,WBJ,311 City Services,DWM - Department of Water Management,Canceled,Phone Call,12/28/2022 05:24:46 AM,12/28/2022 10:43:28 PM,12/28/2022 10:43:28 PM,8248 S EBERHART AVE,,,,8248,S,EBERHART,AVE,false,false,,,44,6,,R041,3,06,0631,45,,5,4,12,1181001.654862033,1850201.145172311,41.744206091,-87.61237153,"(41.744206090612245, -87.61237153019843)",61,40,21546,140,32,4
SR22-02193678,No Water Complaint,WBJ,311 City Services,DWM - Department of Water Management,Completed,Phone Call,12/28/2022 03:39:45 AM,12/28/2022 10:40:38 PM,12/28/2022 10:40:38 PM,10240 S MAPLEWOOD AVE,,,,10240,S,MAPLEWOOD,AVE,false,false,,,72,19,,J046,1,22,2211,53,,3,4,12,1161117.166876958,1836458.105437732,41.706927001,-87.6856095,"(41.70692700093984, -87.68560950000193)",33,71,4447,661,42,19
SR22-02193607,No Water Complaint,WBJ,311 City Services,DWM - Department of Water Management,Completed,Phone Call,12/28/2022 12:39:50 AM,12/28/2022 01:06:56 AM,12/28/2022 01:06:56 AM,7855 S HALSTED ST,,,,7855,S,HALSTED,ST,false,false,,,71,17,,O040,2,06,0621,10,,0,4,12,1172351.064824669,1852596.553396462,41.75097392,-87.643997779,"(41.75097392036798, -87.6439977788144)",59,70,21554,556,31,17
SR22-02193539,No Water Complaint,WBJ,311 City Services,DWM - Department of Water Management,Completed,Phone Call,12/28/2022 12:10:51 AM,12/28/2022 12:23:09 AM,12/28/2022 12:23:09 AM,4328 S WOOD ST,,,,4328,S,WOOD,ST,false,false,,,61,15,,L032,2,09,0924,5,,0,4,12,1165013.514912315,1875870.572049724,41.814999001,-87.6702285,"(41.814999000940226, -87.67022850000191)",37,59,14924,706,3,15
SR22-02193486,No Water Complaint,WBJ,311 City Services,DWM - Department of Water Management,Completed,Phone Call,12/27/2022 11:26:54 PM,12/28/2022 12:37:47 AM,12/28/2022 12:37:47 AM,2548 E 78TH ST,,,,2548,E,78TH,ST,false,false,,,43,7,,W040,2,04,0421,16,,23,3,12,1194744.144869268,1853806.323896229,41.753772001,-87.5619,"(41.753772000939996, -87.5619000000019)",24,39,22538,246,37,5
SR22-02193036,No Water Complaint,WBJ,311 City Services,DWM - Department of Water Management,Completed,Phone Call,12/27/2022 08:19:55 PM,12/27/2022 08:27:42 PM,12/27/2022 08:27:42 PM,2536 W 46TH ST,,,,2536,W,46TH,ST,false,false,,,58,15,,J032,2,09,0922,4,,20,3,12,1160048.179963586,1874150.278876395,41.810382001,-87.6884895,"(41.81038200094022, -87.68848950000192)",56,55,22248,687,3,15
SR22-02193032,No Water Complaint,WBJ,DWM - Department of Water Management,DWM - Department of Water Management,Canceled,Phone Call,12/27/2022 08:17:32 PM,12/28/2022 05:20:25 PM,12/28/2022 05:20:25 PM,4431 S PRINCETON AVE,,,,4431,S,PRINCETON,AVE,false,false,,,37,20,,P032,2,09,0925,5,,20,3,12,1175103.478323818,1875458.639778568,41.813649001,-87.6332295,"(41.81364900094021, -87.63322950000192)",37,3,14924,189,9,20
SR22-02193008,No Water Complaint,WBJ,311 City Services,DWM - Department of Water Management,Completed,Phone Call,12/27/2022 08:09:17 PM,12/29/2022 06:41:12 AM,12/29/2022 06:41:12 AM,7523 S CREGIER AVE,,,,7523,S,CREGIER,AVE,false,false,,,43,8,,U040,1,04,0414,20,,20,3,12,1189588.067709288,1855331.67079645,41.758083001,-87.580746,"(41.758083000940005, -87.58074600000191)",24,39,22538,188,35,10
SR22-02192925,No Water Complaint,WBJ,311 City Services,DWM - Department of Water Management,Completed,Phone Call,12/27/2022 07:43:48 PM,12/27/2022 08:25:26 PM,12/27/2022 08:25:26 PM,2800 S UNION AVE,,,,2800,S,UNION,AVE,true,false,,SR22-02192909,60,11,,O028,1,09,0914,15,,19,3,12,1171991.353858395,1886282.981342396,41.843421001,-87.6443265,"(41.843421000940324, -87.6443265000019)",40,58,21194,688,48,7
SR22-02192909,No Water Complaint,WBJ,,DWM - Department of Water Management,Completed,Internet,12/27/2022 07:39:37 PM,12/27/2022 08:25:25 PM,12/27/2022 08:25:25 PM,2800 S UNION AVE,,,,2800,S,UNION,AVE,false,false,,,60,11,,O028,1,09,0914,15,,19,3,12,1171991.353858395,1886282.981342396,41.843421001,-87.6443265,"(41.843421000940324, -87.6443265000019)",40,58,21194,688,48,7
SR22-02192856,No Water Complaint,WBJ,311 City Services,DWM - Department of Water Management,Completed,Phone Call,12/27/2022 07:29:55 PM,12/28/2022 06:44:56 AM,12/28/2022 06:44:56 AM,1935 S RACINE AVE,,,,1935,S,RACINE,AVE,false,false,,,31,25,,N026,3,12,1235,28,,19,3,12,1168747.626455494,1890678.322831806,41.855553001,-87.656103,"(41.85555300094036, -87.6561030000019)",43,33,14920,251,26,25
SR22-02192821,No Water Complaint,WBJ,,DWM - Department of Water Management,Canceled,Mobile Device,12/27/2022 07:18:30 PM,12/27/2022 08:10:20 PM,12/27/2022 08:10:20 PM,11236 S DRAKE AVE,,,,11236,S,DRAKE,AVE,false,false,,,74,19,,H049,1,22,2211,41,,19,3,12,1154629.998788971,1829696.751101594,41.688504001,-87.709545,"(41.68850400093976, -87.70954500000191)",33,73,4447,264,42,19
SR22-02192784,No Water Complaint,WBJ,,DWM - Department of Water Management,Completed,Internet,12/27/2022 07:06:47 PM,12/28/2022 01:27:22 PM,12/28/2022 01:27:22 PM,2226 E 75TH ST,,,,2226,E,75TH,ST,true,false,,SR22-02192459,43,7,,V039,3,03,0333,4,,19,3,12,1192463.863719231,1855737.460668188,41.759127001,-87.5701935,"(41.759127000940026, -87.5701935000019)",24,39,22538,418,37,5
SR22-02192782,No Water Complaint,WBJ,311 City Services,DWM - Department of Water Management,Canceled,Phone Call,12/27/2022 07:06:18 PM,12/27/2022 08:11:16 PM,12/27/2022 08:11:16 PM,11461 S DRAKE AVE,,,,11461,S,DRAKE,AVE,false,false,,,74,19,,H049,1,22,2211,41,,19,3,12,1154804.587884692,1828333.681807662,41.684760001,-87.708942,"(41.684760000939754, -87.70894200000191)",33,73,4447,264,42,19
SR22-02192738,No Water Complaint,WBJ,311 City Services,DWM - Department of Water Management,Canceled,Phone Call,12/27/2022 06:51:09 PM,12/27/2022 08:05:29 PM,12/27/2022 08:05:29 PM,5716 S WOOD ST,,,,5716,S,WOOD,ST,false,false,,,67,15,,L035,1,07,0715,17,,18,3,12,1165256.162814742,1866689.170421359,41.789799001,-87.6695985,"(41.78979900094013, -87.66959850000191)",23,65,22257,345,3,15
SR22-02192654,No Water Complaint,WBJ,311 City Services,DWM - Department of Water Management,Completed,Phone Call,12/27/2022 06:24:23 PM,12/27/2022 06:38:37 PM,12/27/2022 06:38:37 PM,6337 S ST LAWRENCE AVE,,,,6337,S,ST LAWRENCE,AVE,false,false,,,42,20,,R037,1,03,0312,33,,18,3,12,1181407.545063892,1862975.532590944,41.779251001,-87.610491,"(41.77925100094009, -87.61049100000191)",60,9,22260,332,4,20
SR22-02192572,No Water Complaint,WBJ,,DWM - Department of Water Management,Completed,Internet,12/27/2022 06:04:38 PM,12/27/2022 06:20:14 PM,12/27/2022 06:20:14 PM,6808 S PERRY AVE,,,,6808,S,PERRY,AVE,false,false,,,69,6,,P038,2,07,0722,18,,18,3,12,1176389.041298807,1859752.523456278,41.770521001,-87.628986,"(41.77052100094006, -87.62898600000192)",11,67,21559,513,32,4
SR22-02192539,No Water Complaint,WBJ,311 City Services,DWM - Department of Water Management,Canceled,Phone Call,12/27/2022 05:57:47 PM,12/27/2022 06:43:34 PM,12/27/2022 06:43:34 PM,2142 W 111TH ST,,,,2142,W,111TH,ST,false,false,,,75,19,,K048,1,22,2212,40,,17,3,12,1163992.744186609,1831137.314197855,41.692266001,-87.675228,"(41.69226600093976, -87.67522800000192)",13,74,22212,380,42,19
SR22-02192492,No Water Complaint,WBJ,311 City Services,DWM - Department of Water Management,Completed,Phone Call,12/27/2022 05:45:23 PM,12/27/2022 06:43:15 PM,12/27/2022 06:43:15 PM,453 W 28TH ST,,,,453,W,28TH,ST,false,false,,,60,11,,O028,1,09,0914,27,,17,3,12,1173516.751374867,1886288.709018434,41.843403001,-87.6387285,"(41.8434030009403, -87.63872850000192)",40,58,21194,155,48,7
SR22-02192459,No Water Complaint,WBJ,,DWM - Department of Water Management,Completed,Internet,12/27/2022 05:39:17 PM,12/28/2022 01:27:22 PM,12/28/2022 01:27:22 PM,2226 E 75TH ST,,,,2226,E,75TH,ST,false,false,,,43,7,,V039,3,03,0333,4,,17,3,12,1192463.863719231,1855737.460668188,41.759127001,-87.5701935,"(41.759127000940026, -87.5701935000019)",24,39,22538,418,37,5
SR22-02192328,No Water Complaint,WBJ,311 City Services,DWM - Department of Water Management,Canceled,Phone Call,12/27/2022 05:01:18 PM,12/28/2022 10:34:57 PM,12/28/2022 10:34:57 PM,12234 S PRINCETON AVE,,,,12234,S,PRINCETON,AVE,true,false,,SR22-02189563,53,9,,P051,2,05,0523,3,,17,3,12,1176412.883165596,1823626.58159988,41.671386001,-87.6299805,"(41.6713860009397, -87.6299805000019)",19,50,21861,60,22,11
SR22-02192314,No Water Complaint,WBJ,DWM - Department of Water Management,DWM - Department of Water Management,Completed,Phone Call,12/27/2022 04:58:13 PM,12/28/2022 12:55:28 PM,12/28/2022 12:55:28 PM,8507 S BUFFALO AVE,,,,8507,S,BUFFALO,AVE,false,false,,,46,10,,Y042,2,04,0424,4,,16,3,12,1199687.736417526,1849147.93735817,41.740866001,-87.5439405,"(41.740866000939974, -87.5439405000019)",25,42,21202,506,47,6
SR22-02192251,No Water Complaint,WBJ,,DWM - Department of Water Management,Completed,Mobile Device,12/27/2022 04:40:58 PM,12/27/2022 05:44:15 PM,12/27/2022 05:44:15 PM,815 E 82ND ST,,,,815,E,82ND,ST,false,false,,,44,8,,S041,3,06,0631,45,,16,3,12,1183200.103641467,1850757.150043624,41.745681001,-87.604299,"(41.74568100093994, -87.6042990000019)",61,40,21546,141,35,10
SR22-02192213,No Water Complaint,WBJ,311 City Services,DWM - Department of Water Management,Completed,Phone Call,12/27/2022 04:29:07 PM,12/28/2022 01:19:16 PM,12/28/2022 01:19:16 PM,1739 W 18TH ST,,,,1739,W,18TH,ST,true,false,,SR22-02189835,31,25,,L026,3,12,1234,19,,16,3,12,1164893.838382853,1891373.074080933,41.857542001,-87.6702285,"(41.85754200094036, -87.6702285000019)",43,33,14920,343,26,25
SR22-02192151,No Water Complaint,WBJ,311 City Services,DWM - Department of Water Management,Completed,Phone Call,12/27/2022 04:11:18 PM,12/28/2022 07:26:27 AM,12/28/2022 07:26:27 AM,757 E OAKWOOD BLVD,,,,757,E,OAKWOOD,BLVD,false,false,,,38,4,,R031,1,02,0214,32,,16,3,12,1182078.423363571,1878740.539901494,41.822496001,-87.6075435,"(41.82249600094025, -87.6075435000019)",36,4,4301,583,10,9
SR22-02192123,No Water Complaint,WBJ,,DWM - Department of Water Management,Canceled,Mobile Device,12/27/2022 04:03:33 PM,12/27/2022 04:42:40 PM,12/27/2022 04:42:40 PM,1743 W 18TH ST,,,,1743,W,18TH,ST,false,false,,,31,25,,L026,3,12,1234,19,,16,3,12,1164869.219270479,1891386.00304885,41.857578001,-87.6703185,"(41.85757800094037, -87.6703185000019)",43,33,14920,343,26,25
SR22-02191978,No Water Complaint,WBJ,311 City Services,DWM - Department of Water Management,Completed,Phone Call,12/27/2022 03:32:30 PM,12/28/2022 11:22:57 AM,12/28/2022 11:22:57 AM,1541 N BOSWORTH AVE,,,,1541,N,BOSWORTH,AVE,false,false,,,24,1,,M019,3,14,1433,8,,15,3,12,1165844.721132732,1910514.730924885,41.910048001,-87.666192,"(41.91004800094057, -87.6661920000019)",49,25,22620,483,11,1
SR22-02191956,No Water Complaint,WBJ,311 City Services,DWM - Department of Water Management,Completed,Phone Call,12/27/2022 03:27:30 PM,12/27/2022 11:35:29 PM,12/27/2022 11:35:29 PM,8310 S KEDZIE AVE,,,,8310,S,KEDZIE,AVE,false,false,,,70,18,,H042,3,08,0834,37,,15,3,12,1156428.871528096,1849243.558816316,41.742108001,-87.702435,"(41.74210800093994, -87.70243500000191)",8,69,4300,199,30,18
SR22-02191893,No Water Complaint,WBJ,311 City Services,DWM - Department of Water Management,Completed,Phone Call,12/27/2022 03:13:58 PM,12/27/2022 05:33:01 PM,12/27/2022 05:33:01 PM,2144 N ROCKWELL ST,,,,2144,N,ROCKWELL,ST,false,false,,,22,1,,J017,3,14,1431,16,,15,3,12,1158499.850265202,1914456.822783701,41.921019001,-87.693066,"(41.92101900094056, -87.69306600000192)",1,23,22535,294,41,1
SR22-02191843,No Water Complaint,WBJ,311 City Services,DWM - Department of Water Management,Canceled,Phone Call,12/27/2022 03:01:28 PM,12/27/2022 04:19:48 PM,12/27/2022 04:19:48 PM,5046 N TROY ST,,,,5046,N,TROY,ST,false,false,,,14,33,,I010,1,17,1713,18,,15,3,12,1154369.095990302,1933544.297521609,41.973480001,-87.7077315,"(41.97348000094076, -87.70773150000191)",20,14,21849,749,20,33
SR22-02191809,No Water Complaint,WBJ,311 City Services,DWM - Department of Water Management,Completed,Phone Call,12/27/2022 02:56:09 PM,12/27/2022 05:32:17 PM,12/27/2022 05:32:17 PM,2819 W WASHINGTON BLVD,,,,2819,W,WASHINGTON,BLVD,false,false,,,27,27,,I022,2,12,1222,39,,14,3,12,1157484.268504795,1900454.440032537,41.882616001,-87.697179,"(41.882616000940466, -87.6971790000019)",28,28,21184,51,46,27
SR22-02191612,No Water Complaint,WBJ,311 City Services,DWM - Department of Water Management,Completed,Phone Call,12/27/2022 02:30:17 PM,12/27/2022 04:06:26 PM,12/27/2022 04:06:26 PM,3712 W LEXINGTON ST,,,,3712,W,LEXINGTON,ST,false,false,,,27,24,,G024,3,11,1133,4,,14,3,12,1151685.277195652,1896525.666298931,41.871951001,-87.7185765,"(41.87195100094041, -87.71857650000192)",30,28,21572,704,14,24
SR22-02191609,No Water Complaint,WBJ,311 City Services,DWM - Department of Water Management,Completed,Phone Call,12/27/2022 02:29:58 PM,12/28/2022 06:41:53 AM,12/28/2022 06:41:53 AM,3965 W ONTARIO ST,,,,3965,W,ONTARIO,ST,false,false,,,23,37,,G021,2,11,1122,3,,14,3,12,1149656.197088095,1903880.822582392,41.892174001,-87.725835,"(41.892174000940486, -87.72583500000191)",30,24,21572,584,45,37
SR22-02191404,No Water Complaint,WBJ,311 City Services,DWM - Department of Water Management,Completed,Phone Call,12/27/2022 02:07:29 PM,12/28/2022 11:15:56 AM,12/28/2022 11:15:56 AM,1247 N GREENVIEW AVE,,,,1247,N,GREENVIEW,AVE,true,false,,SR22-02191141,24,1,,M019,3,14,1433,6,,14,3,12,1166253.986872071,1908612.351336093,41.904819001,-87.664743,"(41.90481900094051, -87.66474300000192)",49,25,22620,483,11,1
SR22-02191389,No Water Complaint,WBJ,311 City Services,DWM - Department of Water Management,Completed,Phone Call,12/27/2022 02:06:16 PM,12/28/2022 12:16:48 PM,12/28/2022 12:16:48 PM,9645 S AVENUE L,,,,9645,S,AVENUE L,,false,false,,,52,10,,Y045,3,04,0432,26,,14,3,12,1201849.713156715,1841555.459053058,41.719977001,-87.536277,"(41.719977000939885, -87.5362770000019)",25,49,21202,528,47,6
SR22-02191383,No Water Complaint,WBJ,311 City Services,DWM - Department of Water Management,Completed,Phone Call,12/27/2022 02:05:26 PM,12/27/2022 03:47:15 PM,12/27/2022 03:47:15 PM,2639 W 12TH PL,,,,2639,W,12TH,PL,false,false,,,29,28,,J025,2,10,1023,34,,14,3,12,1158799.507655457,1894260.945385105,41.865593595,-87.69251919,"(41.86559359478715, -87.69251919023655)",43,30,14920,16,23,28
SR22-02191350,No Water Complaint,WBJ,311 City Services,DWM - Department of Water Management,Canceled,Phone Call,12/27/2022 02:02:15 PM,12/27/2022 03:08:40 PM,12/27/2022 03:08:40 PM,4433 S GREENWOOD AVE,,,,4433,S,GREENWOOD,AVE,false,false,,,39,4,,S032,2,02,0222,5,,14,3,12,1184466.655210248,1875733.580859955,41.814189001,-87.5988765,"(41.814189000940225, -87.59887650000191)",36,5,4301,395,10,9
SR22-02191330,No Water Complaint,WBJ,311 City Services,DWM - Department of Water Management,Completed,Phone Call,12/27/2022 01:59:28 PM,12/28/2022 06:57:45 AM,12/28/2022 06:57:45 AM,3551 W ROOSEVELT RD,,,,3551,W,ROOSEVELT,RD,false,false,,,29,24,,H025,2,10,1021,21,,13,3,12,1152683.882810274,1894358.365188297,41.865984001,-87.7149675,"(41.86598400094039, -87.7149675000019)",57,30,21572,772,14,24
SR22-02191267,No Water Complaint,WBJ,311 City Services,DWM - Department of Water Management,Canceled,Phone Call,12/27/2022 01:51:19 PM,12/27/2022 06:53:43 PM,12/27/2022 06:53:43 PM,7930 S WABASH AVE,,,,7930,S,WABASH,AVE,false,false,,,44,6,,Q041,2,06,0623,41,,13,3,12,1177889.117116281,1852323.106682443,41.750100001,-87.623712,"(41.750100000939995, -87.62371200000192)",61,40,21546,406,32,4
SR22-02191206,No Water Complaint,WBJ,,DWM - Department of Water Management,Completed,Internet,12/27/2022 01:42:16 PM,12/28/2022 12:29:55 PM,12/28/2022 12:29:55 PM,9015 S BRANDON AVE,,,,9015,S,BRANDON,AVE,false,false,,,46,10,,X043,2,04,0424,1,,13,3,12,1198964.964674453,1845717.215110824,41.731470001,-87.5467035,"(41.73147000093992, -87.5467035000019)",25,42,21202,175,47,6
SR22-02191141,No Water Complaint,WBJ,311 City Services,DWM - Department of Water Management,Completed,Phone Call,12/27/2022 01:36:35 PM,12/28/2022 11:15:56 AM,12/28/2022 11:15:56 AM,1247 N GREENVIEW AVE,,,,1247,N,GREENVIEW,AVE,false,false,,,24,1,,M019,3,14,1433,6,,13,3,12,1166253.986872071,1908612.351336093,41.904819001,-87.664743,"(41.90481900094051, -87.66474300000192)",49,25,22620,483,11,1
SR22-02191032,No Water Complaint,WBJ,,DWM - Department of Water Management,Completed,Internet,12/27/2022 01:22:18 PM,12/27/2022 05:43:23 PM,12/27/2022 05:43:23 PM,4450 S LAVERGNE AVE,,,,4450,S,LAVERGNE,AVE,false,false,,,56,22,,D032,1,08,0814,23,,13,3,12,1143688.312833617,1874485.834377712,41.811624001,-87.748488,"(41.8116240009402, -87.74848800000191)",7,53,22268,604,28,22
SR22-02190962,No Water Complaint,WBJ,311 City Services,DWM - Department of Water Management,Canceled,Phone Call,12/27/2022 01:11:48 PM,12/27/2022 03:27:00 PM,12/27/2022 03:27:00 PM,955 E 131ST ST,,,,955,E,131ST,ST,false,false,,,54,10,,R054,3,05,0533,15,,13,3,12,1184966.543558392,1818542.794082367,41.657239509,-87.5988332,"(41.65723950880553, -87.5988332003314)",47,51,4460,10,43,6
SR22-02190862,No Water Complaint,WBJ,311 City Services,DWM - Department of Water Management,Completed,Phone Call,12/27/2022 12:58:47 PM,12/27/2022 04:06:52 PM,12/27/2022 04:06:52 PM,1822 W 63RD ST,,,,1822,W,63RD,ST,false,false,,,67,15,,L036,1,07,0714,24,,12,3,12,1165168.295499956,1862965.997891485,41.779584001,-87.670026,"(41.77958400094006, -87.6700260000019)",23,65,22257,275,3,15
SR22-02190797,No Water Complaint,WBJ,311 City Services,DWM - Department of Water Management,Completed,Phone Call,12/27/2022 12:51:12 PM,12/27/2022 06:23:00 PM,12/27/2022 06:23:00 PM,16 S HOMAN AVE,,,,16,S,HOMAN,AVE,false,false,,,27,28,,H023,2,11,1123,25,,12,3,12,1153669.310057364,1899616.371564168,41.880393001,-87.71121,"(41.88039300094045, -87.7112100000019)",30,28,21572,783,23,28
SR22-02190732,No Water Complaint,WBJ,311 City Services,DWM - Department of Water Management,Completed,Phone Call,12/27/2022 12:42:02 PM,12/28/2022 08:17:47 AM,12/28/2022 08:17:47 AM,5156 N BROADWAY,,,,5156,N,BROADWAY,,false,false,,,3,47,,M010,3,20,2033,23,,12,3,12,1167235.080361233,1934540.48417894,41.975946001,-87.6603915,"(41.97594600094077, -87.66039150000191)",15,31,22616,633,18,47
SR22-02190696,No Water Complaint,WBJ,311 City Services,DWM - Department of Water Management,Completed,Phone Call,12/27/2022 12:37:50 PM,12/29/2022 11:58:05 AM,12/29/2022 11:58:05 AM,4130 W OGDEN AVE,,,,4130,W,OGDEN,AVE,false,false,,,29,22,,F027,1,10,1013,21,,12,3,12,1149251.645798341,1888627.153446557,41.850324001,-87.727716,"(41.850324000940375, -87.72771600000192)",57,30,21569,125,28,22
SR22-02190691,No Water Complaint,WBJ,311 City Services,DWM - Department of Water Management,Completed,Phone Call,12/27/2022 12:36:50 PM,12/28/2022 06:47:43 AM,12/28/2022 06:47:43 AM,1941 S RACINE AVE,,,,1941,S,RACINE,AVE,false,false,,,31,25,,N026,3,12,1235,28,,12,3,12,1168738.232869885,1890625.772255449,41.855409001,-87.656139,"(41.85540900094039, -87.65613900000191)",43,33,14920,251,26,25
SR22-02190588,No Water Complaint,WBJ,311 City Services,DWM - Department of Water Management,Completed,Phone Call,12/27/2022 12:29:27 PM,12/27/2022 06:41:53 PM,12/27/2022 06:41:53 PM,4216 S MICHIGAN AVE,,,,4216,S,MICHIGAN,AVE,false,false,,,38,3,,Q031,1,02,0213,15,,12,3,12,1177765.313261004,1876985.896242706,41.817780001,-87.6234195,"(41.81778000094024, -87.62341950000192)",36,4,4301,163,9,8
SR22-02190369,No Water Complaint,WBJ,DWM - Department of Water Management,DWM - Department of Water Management,Completed,Phone Call,12/27/2022 11:52:12 AM,12/27/2022 07:24:45 PM,12/27/2022 07:24:45 PM,841 N KOLIN AVE,,,,841,N,KOLIN,AVE,false,false,,,23,37,,F020,1,11,1111,21,,11,3,12,1147292.841698624,1905428.651387471,41.896467001,-87.734475,"(41.89646700094052, -87.73447500000194)",5,24,4299,99,45,37
SR22-02190329,No Water Complaint,WBJ,311 City Services,DWM - Department of Water Management,Completed,Phone Call,12/27/2022 11:45:10 AM,12/27/2022 04:00:04 PM,12/27/2022 04:00:04 PM,1151 W 79TH ST,,,,1151,W,79TH,ST,false,false,,,71,17,,N041,1,06,0612,24,,11,3,12,1169803.050968797,1852378.983153645,41.750432519,-87.65334125,"(41.75043251861763, -87.65334125017361)",59,70,21554,487,31,17
SR22-02190276,No Water Complaint,WBJ,311 City Services,DWM - Department of Water Management,Canceled,Phone Call,12/27/2022 11:37:16 AM,12/27/2022 06:35:44 PM,12/27/2022 06:35:44 PM,10259 S HALSTED ST,,,,10259,S,HALSTED,ST,false,false,,,73,21,,O046,3,22,2232,45,,11,3,12,1172859.905904932,1836618.237047862,41.707116001,-87.642603,"(41.70711600093985, -87.64260300000191)",19,72,21861,593,22,21
SR22-02190220,No Water Complaint,WBJ,311 City Services,DWM - Department of Water Management,Completed,Phone Call,12/27/2022 11:30:51 AM,12/27/2022 06:32:08 PM,12/27/2022 06:32:08 PM,309 E 59TH ST,,,,309,E,59TH,ST,false,false,,,40,20,,Q036,3,02,0232,7,,11,3,12,1179160.214877502,1865908.537982203,41.787351001,-87.6186405,"(41.787351000940106, -87.6186405000019)",60,7,22260,164,4,20
SR22-02190204,No Water Complaint,WBJ,311 City Services,DWM - Department of Water Management,Completed,Phone Call,12/27/2022 11:27:51 AM,12/27/2022 03:30:14 PM,12/27/2022 03:30:14 PM,6816 S DORCHESTER AVE,,,,6816,S,DORCHESTER,AVE,true,false,,SR22-02190194,43,5,,T038,2,03,0321,13,,11,3,12,1186513.71343304,1860001.613128554,41.770971001,-87.5918655,"(41.770971000940065, -87.59186550000192)",60,39,22260,416,33,3
SR22-02190200,No Water Complaint,WBJ,311 City Services,DWM - Department of Water Management,Completed,Phone Call,12/27/2022 11:27:06 AM,12/27/2022 03:30:14 PM,12/27/2022 03:30:14 PM,6816 S DORCHESTER AVE,,,,6816,S,DORCHESTER,AVE,true,false,,SR22-02190194,43,5,,T038,2,03,0321,13,,11,3,12,1186513.71343304,1860001.613128554,41.770971001,-87.5918655,"(41.770971000940065, -87.59186550000192)",60,39,22260,416,33,3
SR22-02190197,No Water Complaint,WBJ,311 City Services,DWM - Department of Water Management,Completed,Phone Call,12/27/2022 11:26:50 AM,12/27/2022 03:21:43 PM,12/27/2022 03:21:43 PM,6816 S DORCHESTER AVE,,,,6816,S,DORCHESTER,AVE,false,false,,,43,5,,T038,2,03,0321,13,,11,3,12,1186513.71343304,1860001.613128554,41.770971001,-87.5918655,"(41.770971000940065, -87.59186550000192)",60,39,22260,416,33,3
SR22-02190194,No Water Complaint,WBJ,311 City Services,DWM - Department of Water Management,Completed,Phone Call,12/27/2022 11:26:39 AM,12/27/2022 03:30:14 PM,12/27/2022 03:30:14 PM,6816 S DORCHESTER AVE,,,,6816,S,DORCHESTER,AVE,false,false,,,43,5,,T038,2,03,0321,13,,11,3,12,1186513.71343304,1860001.613128554,41.770971001,-87.5918655,"(41.770971000940065, -87.59186550000192)",60,39,22260,416,33,3
SR22-02190191,No Water Complaint,WBJ,311 City Services,DWM - Department of Water Management,Completed,Phone Call,12/27/2022 11:26:19 AM,12/27/2022 03:32:17 PM,12/27/2022 03:32:17 PM,6818 S DORCHESTER AVE,,,,6818,S,DORCHESTER,AVE,false,false,,,43,5,,T038,2,03,0321,13,,11,3,12,1186511.371435697,1859988.473826786,41.770935001,-87.5918745,"(41.77093500094008, -87.59187450000191)",60,39,22260,416,33,3
SR22-02190187,No Water Complaint,WBJ,311 City Services,DWM - Department of Water Management,Completed,Phone Call,12/27/2022 11:25:55 AM,12/27/2022 03:32:48 PM,12/27/2022 03:32:48 PM,6806 S DORCHESTER AVE,,,,6806,S,DORCHESTER,AVE,true,false,,SR22-02190179,43,5,,T038,2,03,0321,13,,11,3,12,1186526.650919063,1860067.320226197,41.771151001,-87.591816,"(41.77115100094004, -87.59181600000191)",60,39,22260,416,33,3
SR22-02190179,No Water Complaint,WBJ,311 City Services,DWM - Department of Water Management,Completed,Phone Call,12/27/2022 11:25:23 AM,12/27/2022 03:32:48 PM,12/27/2022 03:32:48 PM,6806 S DORCHESTER AVE,,,,6806,S,DORCHESTER,AVE,false,false,,,43,5,,T038,2,03,0321,13,,11,3,12,1186526.650919063,1860067.320226197,41.771151001,-87.591816,"(41.77115100094004, -87.59181600000191)",60,39,22260,416,33,3
SR22-02190129,No Water Complaint,WBJ,311 City Services,DWM - Department of Water Management,Canceled,Phone Call,12/27/2022 11:18:41 AM,12/27/2022 06:17:14 PM,12/27/2022 06:17:14 PM,12946 S SAGINAW AVE,,,60633,12946,S,SAGINAW,AVE,false,false,,,55,10,,V054,3,04,0433,9,,11,3,12,1195765.565964301,1819350.687115117,41.659197156,-87.559291881,"(41.65919715603961, -87.55929188116714)",26,48,22250,174,47,6
SR22-02190124,No Water Complaint,WBJ,311 City Services,DWM - Department of Water Management,Completed,Phone Call,12/27/2022 11:18:09 AM,01/27/2023 11:52:12 AM,01/27/2023 11:52:12 AM,8250 S RHODES AVE,,,,8250,S,RHODES,AVE,false,false,,,44,6,,R041,3,06,0631,45,,11,3,12,1181264.306182352,1850206.229887678,41.744214001,-87.611409,"(41.74421400093997, -87.6114090000019)",61,40,21546,140,32,4
SR22-02190101,No Water Complaint,WBJ,311 City Services,DWM - Department of Water Management,Completed,Phone Call,12/27/2022 11:14:49 AM,12/28/2022 11:19:13 AM,12/28/2022 11:19:13 AM,10312 S AVENUE O,,,,10312,S,AVENUE O,,false,false,,,52,10,,X047,3,04,0432,31,,11,3,12,1200769.060755727,1837094.810988422,41.707764001,-87.5403855,"(41.70776400093983, -87.5403855000019)",25,49,21202,602,47,6
SR22-02190093,No Water Complaint,WBJ,311 City Services,DWM - Department of Water Management,Completed,Phone Call,12/27/2022 11:13:13 AM,12/27/2022 08:43:38 PM,12/27/2022 08:43:38 PM,10706 S BUFFALO AVE,,,,10706,S,BUFFALO,AVE,false,false,,,52,10,,X048,3,04,0432,33,,11,3,12,1199796.34944994,1834488.291164202,41.700636001,-87.544035,"(41.700636000939824, -87.54403500000191)",25,49,21202,602,47,6
SR22-02190084,No Water Complaint,WBJ,311 City Services,DWM - Department of Water Management,Completed,Phone Call,12/27/2022 11:11:28 AM,12/27/2022 02:30:52 PM,12/27/2022 02:30:52 PM,4334 N CALIFORNIA AVE,,,,4334,N,CALIFORNIA,AVE,false,false,,,16,33,,I012,2,17,1724,23,,11,3,12,1156914.182914663,1928827.018503723,41.960484142,-87.6985011,"(41.9604841418949, -87.69850110040579)",39,16,21538,214,20,33
SR22-02190072,No Water Complaint,WBJ,311 City Services,DWM - Department of Water Management,Completed,Phone Call,12/27/2022 11:08:58 AM,12/27/2022 06:06:25 PM,12/27/2022 06:06:25 PM,114 N KEELER AVE,,,,114,N,KEELER,AVE,false,false,,,26,28,,F022,1,11,1114,23,,11,3,12,1148316.069752973,1900342.360738363,41.882490001,-87.730848,"(41.88249000094044, -87.73084800000191)",30,27,21572,619,23,28
SR22-02190007,No Water Complaint,WBJ,311 City Services,DWM - Department of Water Management,Completed,Phone Call,12/27/2022 10:59:57 AM,12/27/2022 05:52:38 PM,12/27/2022 05:52:38 PM,2047 E 75TH ST,,,,2047,E,75TH,ST,false,false,,,43,8,,V040,1,04,0414,28,,10,3,12,1191355.260417276,1855580.06194741,41.758722001,-87.5742615,"(41.758722000940004, -87.5742615000019)",24,39,22538,420,35,10
SR22-02190006,No Water Complaint,WBJ,,DWM - Department of Water Management,Completed,Internet,12/27/2022 10:59:50 AM,12/27/2022 05:40:38 PM,12/27/2022 05:40:38 PM,8012 S MANISTEE AVE,,,,8012,S,MANISTEE,AVE,false,false,,,46,7,,W041,2,04,0422,20,,10,3,12,1195827.42519667,1852284.399222218,41.749569001,-87.5579805,"(41.74956900093998, -87.55798050000192)",25,42,21202,244,37,5
SR22-02189925,No Water Complaint,WBJ,311 City Services,DWM - Department of Water Management,Completed,Phone Call,12/27/2022 10:48:35 AM,12/28/2022 01:15:24 PM,12/28/2022 01:15:24 PM,7756 S COLFAX AVE,,,,7756,S,COLFAX,AVE,false,false,,,43,7,,W040,2,04,0421,16,,10,3,12,1194801.972605853,1853793.723326216,41.753736001,-87.5616885,"(41.75373600094001, -87.56168850000192)",24,39,22538,246,37,5
SR22-02189916,No Water Complaint,WBJ,,DWM - Department of Water Management,Completed,Internet,12/27/2022 10:46:51 AM,12/27/2022 03:41:32 PM,12/27/2022 03:41:32 PM,6033 S MICHIGAN AVE,,,,6033,S,MICHIGAN,AVE,false,false,,,40,20,,Q036,1,03,0311,23,,10,3,12,1178303.185410421,1864914.220419406,41.784642001,-87.621813,"(41.78464200094011, -87.62181300000192)",60,7,22260,404,4,20
SR22-02189883,No Water Complaint,WBJ,,DWM - Department of Water Management,Completed,Internet,12/27/2022 10:43:24 AM,12/27/2022 03:12:14 PM,12/27/2022 03:12:14 PM,10207 S WASHTENAW AVE,,,,10207,S,WASHTENAW,AVE,false,false,,,72,19,,J046,1,22,2211,1,,10,3,12,1160247.132116558,1836789.3838218,41.707854001,-87.6887865,"(41.707854000939825, -87.6887865000019)",33,71,4447,661,42,19
SR22-02189872,No Water Complaint,WBJ,311 City Services,DWM - Department of Water Management,Completed,Phone Call,12/27/2022 10:41:39 AM,12/27/2022 03:17:49 PM,12/27/2022 03:17:49 PM,7527 S COLFAX AVE,,,,7527,S,COLFAX,AVE,false,false,,,43,7,,W040,2,04,0421,12,,10,3,12,1194954.155699114,1855444.824397322,41.758263001,-87.5610765,"(41.758263000940005, -87.56107650000192)",24,39,22538,245,37,5
SR22-02189863,No Water Complaint,WBJ,,DWM - Department of Water Management,Completed,Internet,12/27/2022 10:40:20 AM,12/27/2022 03:51:43 PM,12/27/2022 03:51:43 PM,1430 S KENNETH AVE,,,,1430,S,KENNETH,AVE,false,false,,,29,24,,E025,1,10,1011,8,,10,3,12,1146857.324674858,1892651.016977031,41.861412001,-87.736401,"(41.861412000940355, -87.73640100000192)",57,30,21569,761,14,24
SR22-02189835,No Water Complaint,WBJ,311 City Services,DWM - Department of Water Management,Completed,Phone Call,12/27/2022 10:36:01 AM,12/28/2022 01:19:15 PM,12/28/2022 01:19:16 PM,1739 W 18TH ST,,,,1739,W,18TH,ST,false,false,,,31,25,,L026,3,12,1234,19,,10,3,12,1164893.838382853,1891373.074080933,41.857542001,-87.6702285,"(41.85754200094036, -87.6702285000019)",43,33,14920,343,26,25
SR22-02189753,No Water Complaint,WBJ,311 City Services,DWM - Department of Water Management,Completed,Phone Call,12/27/2022 10:25:21 AM,12/27/2022 03:05:45 PM,12/27/2022 03:05:45 PM,2007 W FARGO AVE,,,,2007,W,FARGO,AVE,false,false,,,1,49,,K004,2,24,2424,19,,10,3,12,1161581.631192219,1949147.824485586,42.016149001,-87.680772,"(42.01614900094092, -87.68077200000191)",12,10,22528,52,5,49
SR22-02189687,No Water Complaint,WBJ,311 City Services,DWM - Department of Water Management,Completed,Phone Call,12/27/2022 10:15:41 AM,12/28/2022 06:40:08 AM,12/28/2022 06:40:08 AM,3138 W 25TH ST,,,,3138,W,25TH,ST,false,false,,,30,25,,I027,3,10,1033,14,,10,3,12,1155669.027535159,1887285.959617183,41.846517001,-87.704199,"(41.84651700094034, -87.70419900000192)",57,32,21569,261,1,25
SR22-02189633,No Water Complaint,WBJ,,DWM - Department of Water Management,Completed,Mobile Device,12/27/2022 10:09:09 AM,12/27/2022 08:18:18 PM,12/27/2022 08:18:18 PM,3301 E 106TH ST,,,,3301,E,106TH,ST,false,false,,,52,10,,X048,3,04,0432,33,,10,3,12,1199904.260576088,1835184.592697785,41.702544001,-87.5436165,"(41.70254400093984, -87.5436165000019)",25,49,21202,602,47,6
SR22-02189613,No Water Complaint,WBJ,311 City Services,DWM - Department of Water Management,Completed,Phone Call,12/27/2022 10:06:32 AM,12/27/2022 02:49:43 PM,12/27/2022 02:49:43 PM,11218 S INDIANA AVE,,,,11218,S,INDIANA,AVE,false,false,,,49,9,,Q049,3,05,0531,43,,10,3,12,1179412.402510363,1830509.121129052,41.690205001,-87.6187935,"(41.69020500093975, -87.61879350000191)",19,45,21861,253,43,11
SR22-02189610,No Water Complaint,WBJ,311 City Services,DWM - Department of Water Management,Canceled,Phone Call,12/27/2022 10:06:17 AM,12/28/2022 01:57:18 PM,12/28/2022 01:57:18 PM,4827 S WOLCOTT AVE,,,,4827,S,WOLCOTT,AVE,false,false,,,61,15,,L033,3,09,0931,14,,10,3,12,1164577.842964194,1872544.833320448,41.805882001,-87.6719205,"(41.8058820009402, -87.6719205000019)",37,59,14924,709,3,15
SR22-02189563,No Water Complaint,WBJ,311 City Services,DWM - Department of Water Management,Canceled,Phone Call,12/27/2022 09:58:22 AM,12/28/2022 10:34:57 PM,12/28/2022 10:34:57 PM,12234 S PRINCETON AVE,,,,12234,S,PRINCETON,AVE,false,false,,,53,9,,P051,2,05,0523,3,,9,3,12,1176412.883165596,1823626.58159988,41.671386001,-87.6299805,"(41.6713860009397, -87.6299805000019)",19,50,21861,60,22,11
SR22-02189499,No Water Complaint,WBJ,311 City Services,DWM - Department of Water Management,Completed,Phone Call,12/27/2022 09:49:00 AM,12/28/2022 06:36:24 AM,12/28/2022 06:36:24 AM,1418 S HALSTED ST,,,,1418,S,HALSTED,ST,false,false,,,28,25,,N025,3,12,1232,7,,9,3,12,1171186.492393693,1893396.952162408,41.862960001,-87.6470715,"(41.86296000094038, -87.64707150000191)",43,29,14917,97,48,25
SR22-02189450,No Water Complaint,WBJ,311 City Services,DWM - Department of Water Management,Completed,Phone Call,12/27/2022 09:41:06 AM,12/27/2022 01:46:19 PM,12/27/2022 01:46:19 PM,1644 N SEDGWICK ST,,,,1644,N,SEDGWICK,ST,false,false,,,7,2,,O018,1,18,1813,46,,9,3,12,1173239.894657509,1911416.336596871,41.912361001,-87.6389985,"(41.91236100094056, -87.6389985000019)",16,68,21190,272,11,2
