{
"type": "FeatureCollection",
"name": "Regional_Rail_Stations",
"crs": { "type": "name", "properties": { "name": "urn:ogc:def:crs:EPSG::2272" } },
"features": [
{ "type": "Feature", "properties": { "FID_1": 1, "Line_Name": "Airport Line", "Station_Na": "Airport Terminal A", "Latitude": 39.875992154000002, "Longitude": -75.246573739 }, "geometry": { "type": "Point", "coordinates": [ 2671047.659791380167007, 207639.230642974376678 ] } },
{ "type": "Feature", "properties": { "FID_1": 2, "Line_Name": "Airport Line", "Station_Na": "Airport Terminal B", "Latitude": 39.87638033, "Longitude": -75.244632724 }, "geometry": { "type": "Point", "coordinates": [ 2671588.217765390872955, 207796.02658922970295 ] } },
{ "type": "Feature", "properties": { "FID_1": 3, "Line_Name": "Airport Line", "Station_Na": "Airport Terminals C&D", "Latitude": 39.877322491000001, "Longitude": -75.241542413000005 }, "geometry": { "type": "Point", "coordinates": [ 2672445.47884613275528, 208163.71876722574234 ] } },
{ "type": "Feature", "properties": { "FID_1": 4, "Line_Name": "Airport Line", "Station_Na": "Airport Terminals E&F", "Latitude": 39.878980962999997, "Longitude": -75.240039995000004 }, "geometry": { "type": "Point", "coordinates": [ 2672849.817932471632957, 208779.605330720543861 ] } },
{ "type": "Feature", "properties": { "FID_1": 5, "Line_Name": "Airport Line", "Station_Na": "Eastwick", "Latitude": 39.891650505000001, "Longitude": -75.244980619000003 }, "geometry": { "type": "Point", "coordinates": [ 2671332.845572724938393, 213353.664424061775208 ] } },
{ "type": "Feature", "properties": { "FID_1": 6, "Line_Name": "Chestnut Hill East Line", "Station_Na": "Chestnut Hill East", "Latitude": 40.081041612, "Longitude": -75.207758959000003 }, "geometry": { "type": "Point", "coordinates": [ 2679787.434962719678879, 282615.37465363740921 ] } },
{ "type": "Feature", "properties": { "FID_1": 7, "Line_Name": "Chestnut Hill East Line", "Station_Na": "Germantown", "Latitude": 40.037838594999997, "Longitude": -75.17193487 }, "geometry": { "type": "Point", "coordinates": [ 2690267.108557134866714, 267174.504616811871529 ] } },
{ "type": "Feature", "properties": { "FID_1": 8, "Line_Name": "Chestnut Hill East Line", "Station_Na": "Gravers", "Latitude": 40.077462288, "Longitude": -75.201841836 }, "geometry": { "type": "Point", "coordinates": [ 2681480.129411965608597, 281359.741010054945946 ] } },
{ "type": "Feature", "properties": { "FID_1": 9, "Line_Name": "Chestnut Hill East Line", "Station_Na": "Mount Airy", "Latitude": 40.065255796000002, "Longitude": -75.191044307 }, "geometry": { "type": "Point", "coordinates": [ 2684629.283874809741974, 277002.33929181098938 ] } },
{ "type": "Feature", "properties": { "FID_1": 10, "Line_Name": "Chestnut Hill East Line", "Station_Na": "Sedgwick", "Latitude": 40.062816869000002, "Longitude": -75.185122512999996 }, "geometry": { "type": "Point", "coordinates": [ 2686311.844157963991165, 276162.329160809516907 ] } },
{ "type": "Feature", "properties": { "FID_1": 11, "Line_Name": "Chestnut Hill East Line", "Station_Na": "Stenton", "Latitude": 40.060563117000001, "Longitude": -75.178832795999995 }, "geometry": { "type": "Point", "coordinates": [ 2688095.498399049043655, 275392.858914971351624 ] } },
{ "type": "Feature", "properties": { "FID_1": 12, "Line_Name": "Chestnut Hill East Line", "Station_Na": "Washington Lane", "Latitude": 40.051058925, "Longitude": -75.17153109 }, "geometry": { "type": "Point", "coordinates": [ 2690239.526919394731522, 271991.696425974369049 ] } },
{ "type": "Feature", "properties": { "FID_1": 13, "Line_Name": "Chestnut Hill East Line", "Station_Na": "Wister", "Latitude": 40.036182066000002, "Longitude": -75.161465258999996 }, "geometry": { "type": "Point", "coordinates": [ 2693215.074117884039879, 266657.059785559773445 ] } },
{ "type": "Feature", "properties": { "FID_1": 14, "Line_Name": "Chestnut Hill East Line", "Station_Na": "Wyndmoor", "Latitude": 40.073439092999998, "Longitude": -75.196739398000005 }, "geometry": { "type": "Point", "coordinates": [ 2682949.770829632878304, 279936.004356220364571 ] } },
{ "type": "Feature", "properties": { "FID_1": 15, "Line_Name": "Chestnut Hill West Line", "Station_Na": "Allen Lane", "Latitude": 40.057457917999997, "Longitude": -75.194925115000004 }, "geometry": { "type": "Point", "coordinates": [ 2683625.711406886577606, 274131.443458810448647 ] } },
{ "type": "Feature", "properties": { "FID_1": 16, "Line_Name": "Chestnut Hill West Line", "Station_Na": "Carpenter", "Latitude": 40.050928007000003, "Longitude": -75.191618977000005 }, "geometry": { "type": "Point", "coordinates": [ 2684619.690718144178391, 271780.493108227849007 ] } },
{ "type": "Feature", "properties": { "FID_1": 17, "Line_Name": "Chestnut Hill West Line", "Station_Na": "Chelten Avenue", "Latitude": 40.029959562999998, "Longitude": -75.181096265999997 }, "geometry": { "type": "Point", "coordinates": [ 2687786.448492214083672, 264230.778548896312714 ] } },
{ "type": "Feature", "properties": { "FID_1": 18, "Line_Name": "Chestnut Hill West Line", "Station_Na": "Chestnut Hill West", "Latitude": 40.076228176999997, "Longitude": -75.208512174000006 }, "geometry": { "type": "Point", "coordinates": [ 2679627.208577141165733, 280856.577974393963814 ] } },
{ "type": "Feature", "properties": { "FID_1": 19, "Line_Name": "Chestnut Hill West Line", "Station_Na": "Highland", "Latitude": 40.070349096000001, "Longitude": -75.211126816000004 }, "geometry": { "type": "Point", "coordinates": [ 2678957.376583471894264, 278694.765696972608566 ] } },
{ "type": "Feature", "properties": { "FID_1": 20, "Line_Name": "Chestnut Hill West Line", "Station_Na": "North Philadelphia", "Latitude": 39.997211993999997, "Longitude": -75.156583991999995 }, "geometry": { "type": "Point", "coordinates": [ 2694998.127966463565826, 252507.151405647397041 ] } },
{ "type": "Feature", "properties": { "FID_1": 21, "Line_Name": "Chestnut Hill West Line", "Station_Na": "Queen Lane", "Latitude": 40.023258034000001, "Longitude": -75.178067258 }, "geometry": { "type": "Point", "coordinates": [ 2688705.410236969590187, 261815.246962636709213 ] } },
{ "type": "Feature", "properties": { "FID_1": 22, "Line_Name": "Chestnut Hill West Line", "Station_Na": "St. Martins", "Latitude": 40.065803707000001, "Longitude": -75.204526161000004 }, "geometry": { "type": "Point", "coordinates": [ 2680851.657243713736534, 277092.81319223344326 ] } },
{ "type": "Feature", "properties": { "FID_1": 23, "Line_Name": "Chestnut Hill West Line", "Station_Na": "Tulpehocken", "Latitude": 40.035122891, "Longitude": -75.186958141999995 }, "geometry": { "type": "Point", "coordinates": [ 2686091.019796475768089, 266063.209267228841782 ] } },
{ "type": "Feature", "properties": { "FID_1": 24, "Line_Name": "Chestnut Hill West Line", "Station_Na": "Upsal", "Latitude": 40.042381972000001, "Longitude": -75.190183172999994 }, "geometry": { "type": "Point", "coordinates": [ 2685111.702201306819916, 268680.26997797191143 ] } },
{ "type": "Feature", "properties": { "FID_1": 25, "Line_Name": "Cynwyd Line", "Station_Na": "Bala", "Latitude": 40.001042706, "Longitude": -75.227762618 }, "geometry": { "type": "Point", "coordinates": [ 2675024.404134467244148, 253324.522802397608757 ] } },
{ "type": "Feature", "properties": { "FID_1": 26, "Line_Name": "Cynwyd Line", "Station_Na": "Cynwyd", "Latitude": 40.006858264000002, "Longitude": -75.231867758000007 }, "geometry": { "type": "Point", "coordinates": [ 2673814.393759220838547, 255409.351966053247452 ] } },
{ "type": "Feature", "properties": { "FID_1": 27, "Line_Name": "Cynwyd Line", "Station_Na": "Wynnefield Avenue", "Latitude": 39.99021325, "Longitude": -75.225646671999996 }, "geometry": { "type": "Point", "coordinates": [ 2675729.707841977477074, 249398.089054226875305 ] } },
{ "type": "Feature", "properties": { "FID_1": 28, "Line_Name": "Fox Chase Line", "Station_Na": "Cheltenham", "Latitude": 40.057870682999997, "Longitude": -75.092869183000005 }, "geometry": { "type": "Point", "coordinates": [ 2712176.571955963969231, 275124.663913309574127 ] } },
{ "type": "Feature", "properties": { "FID_1": 29, "Line_Name": "Fox Chase Line", "Station_Na": "Fox Chase", "Latitude": 40.075909973000002, "Longitude": -75.083523821 }, "geometry": { "type": "Point", "coordinates": [ 2714592.964104801416397, 281771.922928482294083 ] } },
{ "type": "Feature", "properties": { "FID_1": 30, "Line_Name": "Fox Chase Line", "Station_Na": "Lawndale", "Latitude": 40.051367653, "Longitude": -75.103231799 }, "geometry": { "type": "Point", "coordinates": [ 2709348.149463221430779, 272669.687852144241333 ] } },
{ "type": "Feature", "properties": { "FID_1": 31, "Line_Name": "Fox Chase Line", "Station_Na": "Olney", "Latitude": 40.033395612, "Longitude": -75.122513925999996 }, "geometry": { "type": "Point", "coordinates": [ 2704147.315048635005951, 265964.50375597178936 ] } },
{ "type": "Feature", "properties": { "FID_1": 32, "Line_Name": "Fox Chase Line", "Station_Na": "Ryers", "Latitude": 40.063645491000003, "Longitude": -75.086731149000002 }, "geometry": { "type": "Point", "coordinates": [ 2713830.527965635061264, 277279.123187065124512 ] } },
{ "type": "Feature", "properties": { "FID_1": 33, "Line_Name": "Joint", "Station_Na": "30th Street Station", "Latitude": 39.956516281, "Longitude": -75.181805964999995 }, "geometry": { "type": "Point", "coordinates": [ 2688365.720299556851387, 237482.213607802987099 ] } },
{ "type": "Feature", "properties": { "FID_1": 34, "Line_Name": "Joint", "Station_Na": "Elkins Park", "Latitude": 40.071228057, "Longitude": -75.127676758999996 }, "geometry": { "type": "Point", "coordinates": [ 2702293.069085225462914, 279697.193482145667076 ] } },
{ "type": "Feature", "properties": { "FID_1": 35, "Line_Name": "Joint", "Station_Na": "Fern Rock T.C.", "Latitude": 40.040884984999998, "Longitude": -75.13480883 }, "geometry": { "type": "Point", "coordinates": [ 2700625.20135797560215, 268589.380724057555199 ] } },
{ "type": "Feature", "properties": { "FID_1": 36, "Line_Name": "Joint", "Station_Na": "Glenside", "Latitude": 40.101353926999998, "Longitude": -75.153746397000006 }, "geometry": { "type": "Point", "coordinates": [ 2694677.649932891130447, 290451.285819053649902 ] } },
{ "type": "Feature", "properties": { "FID_1": 37, "Line_Name": "Joint", "Station_Na": "Jefferson", "Latitude": 39.952640797999997, "Longitude": -75.158372027 }, "geometry": { "type": "Point", "coordinates": [ 2694973.802227720618248, 236262.944392815232277 ] } },
{ "type": "Feature", "properties": { "FID_1": 38, "Line_Name": "Joint", "Station_Na": "Jenkintown-Wyncote", "Latitude": 40.093146947999998, "Longitude": -75.13772812000001 }, "geometry": { "type": "Point", "coordinates": [ 2699245.111270383000374, 287595.042843893170357 ] } },
{ "type": "Feature", "properties": { "FID_1": 39, "Line_Name": "Joint", "Station_Na": "Melrose Park", "Latitude": 40.05947879, "Longitude": -75.129140648999993 }, "geometry": { "type": "Point", "coordinates": [ 2702010.558823466300964, 275406.85265339910984 ] } },
{ "type": "Feature", "properties": { "FID_1": 40, "Line_Name": "Joint", "Station_Na": "North Broad", "Latitude": 39.991877955, "Longitude": -75.153710546 }, "geometry": { "type": "Point", "coordinates": [ 2695859.955967217683792, 250588.545990899205208 ] } },
{ "type": "Feature", "properties": { "FID_1": 41, "Line_Name": "Joint", "Station_Na": "Suburban Station", "Latitude": 39.95399019, "Longitude": -75.167470972000004 }, "geometry": { "type": "Point", "coordinates": [ 2692409.583930969238281, 236679.574465066194534 ] } },
{ "type": "Feature", "properties": { "FID_1": 42, "Line_Name": "Joint", "Station_Na": "Temple University", "Latitude": 39.981478975999998, "Longitude": -75.149531787000001 }, "geometry": { "type": "Point", "coordinates": [ 2697141.84382338821888, 246836.469177469611168 ] } },
{ "type": "Feature", "properties": { "FID_1": 43, "Line_Name": "Joint", "Station_Na": "University City", "Latitude": 39.948197534999998, "Longitude": -75.189932125 }, "geometry": { "type": "Point", "coordinates": [ 2686176.431371048092842, 234386.982593566179276 ] } },
{ "type": "Feature", "properties": { "FID_1": 44, "Line_Name": "Joint", "Station_Na": "Wayne Junction", "Latitude": 40.022423275999998, "Longitude": -75.159950297999998 }, "geometry": { "type": "Point", "coordinates": [ 2693786.073960140347481, 261659.558953806757927 ] } },
{ "type": "Feature", "properties": { "FID_1": 45, "Line_Name": "Lansdale Doylestown Line", "Station_Na": "Ambler", "Latitude": 40.152827232, "Longitude": -75.224359613999994 }, "geometry": { "type": "Point", "coordinates": [ 2674396.27317288517952, 308621.823952972888947 ] } },
{ "type": "Feature", "properties": { "FID_1": 46, "Line_Name": "Lansdale Doylestown Line", "Station_Na": "Chalfont", "Latitude": 40.287780268, "Longitude": -75.211072973 }, "geometry": { "type": "Point", "coordinates": [ 2676695.565818384289742, 357869.790745556354523 ] } },
{ "type": "Feature", "properties": { "FID_1": 47, "Line_Name": "Lansdale Doylestown Line", "Station_Na": "Colmar", "Latitude": 40.26849547, "Longitude": -75.254079138999998 }, "geometry": { "type": "Point", "coordinates": [ 2664901.402398884296417, 350505.369122728705406 ] } },
{ "type": "Feature", "properties": { "FID_1": 48, "Line_Name": "Lansdale Doylestown Line", "Station_Na": "Delaware Valley College", "Latitude": 40.297235471999997, "Longitude": -75.161782790999993 }, "geometry": { "type": "Point", "coordinates": [ 2690339.473569884896278, 361711.86672280728817 ] } },
{ "type": "Feature", "properties": { "FID_1": 49, "Line_Name": "Lansdale Doylestown Line", "Station_Na": "Doylestown", "Latitude": 40.306199607000003, "Longitude": -75.130680143999996 }, "geometry": { "type": "Point", "coordinates": [ 2698914.450186297297478, 365231.742885142564774 ] } },
{ "type": "Feature", "properties": { "FID_1": 50, "Line_Name": "Lansdale Doylestown Line", "Station_Na": "Fort Washington", "Latitude": 40.135314061000003, "Longitude": -75.211573966000003 }, "geometry": { "type": "Point", "coordinates": [ 2678152.12983438372612, 302347.121279314160347 ] } },
{ "type": "Feature", "properties": { "FID_1": 51, "Line_Name": "Lansdale Doylestown Line", "Station_Na": "Fortuna", "Latitude": 40.259503816, "Longitude": -75.266305657999993 }, "geometry": { "type": "Point", "coordinates": [ 2661583.026489719748497, 347134.916874140501022 ] } },
{ "type": "Feature", "properties": { "FID_1": 52, "Line_Name": "Lansdale Doylestown Line", "Station_Na": "Gwynedd Valley", "Latitude": 40.184816397, "Longitude": -75.256913170999994 }, "geometry": { "type": "Point", "coordinates": [ 2664971.322862714529037, 320011.863836899399757 ] } },
{ "type": "Feature", "properties": { "FID_1": 53, "Line_Name": "Lansdale Doylestown Line", "Station_Na": "Lansdale", "Latitude": 40.243090981999998, "Longitude": -75.284866793000006 }, "geometry": { "type": "Point", "coordinates": [ 2656571.714333891868591, 341013.098737224936485 ] } },
{ "type": "Feature", "properties": { "FID_1": 54, "Line_Name": "Lansdale Doylestown Line", "Station_Na": "Link Belt", "Latitude": 40.273891939000002, "Longitude": -75.246741219 }, "geometry": { "type": "Point", "coordinates": [ 2666892.531618714332581, 352528.410024136304855 ] } },
{ "type": "Feature", "properties": { "FID_1": 55, "Line_Name": "Lansdale Doylestown Line", "Station_Na": "New Britain", "Latitude": 40.297490609, "Longitude": -75.179640886000001 }, "geometry": { "type": "Point", "coordinates": [ 2685357.661355048418045, 361659.306788563728333 ] } },
{ "type": "Feature", "properties": { "FID_1": 56, "Line_Name": "Lansdale Doylestown Line", "Station_Na": "Ninth Street", "Latitude": 40.250349721, "Longitude": -75.278753058999996 }, "geometry": { "type": "Point", "coordinates": [ 2658203.756017297506332, 343704.037252977490425 ] } },
{ "type": "Feature", "properties": { "FID_1": 57, "Line_Name": "Lansdale Doylestown Line", "Station_Na": "North Hills", "Latitude": 40.112032673000002, "Longitude": -75.169437192000004 }, "geometry": { "type": "Point", "coordinates": [ 2690176.501454889774323, 294211.092931970953941 ] } },
{ "type": "Feature", "properties": { "FID_1": 58, "Line_Name": "Lansdale Doylestown Line", "Station_Na": "North Wales", "Latitude": 40.214357608999997, "Longitude": -75.277267533 }, "geometry": { "type": "Point", "coordinates": [ 2658985.32138329744339, 330609.26587039232254 ] } },
{ "type": "Feature", "properties": { "FID_1": 59, "Line_Name": "Lansdale Doylestown Line", "Station_Na": "Oreland", "Latitude": 40.118196545000004, "Longitude": -75.183829873999997 }, "geometry": { "type": "Point", "coordinates": [ 2686087.366588547825813, 296338.261577889323235 ] } },
{ "type": "Feature", "properties": { "FID_1": 60, "Line_Name": "Lansdale Doylestown Line", "Station_Na": "Penllyn", "Latitude": 40.16971177, "Longitude": -75.243958433000003 }, "geometry": { "type": "Point", "coordinates": [ 2668745.52200722694397, 314614.09936997294426 ] } },
{ "type": "Feature", "properties": { "FID_1": 61, "Line_Name": "Lansdale Doylestown Line", "Station_Na": "Pennbrook", "Latitude": 40.230285846999998, "Longitude": -75.281769608999994 }, "geometry": { "type": "Point", "coordinates": [ 2657566.338328883051872, 336374.30060014128685 ] } },
{ "type": "Feature", "properties": { "FID_1": 62, "Line_Name": "Manayunk Norristown Line", "Station_Na": "Allegheny", "Latitude": 40.003859036999998, "Longitude": -75.165425987999996 }, "geometry": { "type": "Point", "coordinates": [ 2692451.058913633227348, 254854.900647148489952 ] } },
{ "type": "Feature", "properties": { "FID_1": 63, "Line_Name": "Manayunk Norristown Line", "Station_Na": "Conshohocken", "Latitude": 40.072114962000001, "Longitude": -75.308640014000005 }, "geometry": { "type": "Point", "coordinates": [ 2651659.423305466771126, 278568.37323322892189 ] } },
{ "type": "Feature", "properties": { "FID_1": 64, "Line_Name": "Manayunk Norristown Line", "Station_Na": "East Falls", "Latitude": 40.011406086999997, "Longitude": -75.192040974999998 }, "geometry": { "type": "Point", "coordinates": [ 2684918.560527220368385, 257385.948078483343124 ] } },
{ "type": "Feature", "properties": { "FID_1": 65, "Line_Name": "Manayunk Norristown Line", "Station_Na": "Elm Street", "Latitude": 40.120847313, "Longitude": -75.345086314 }, "geometry": { "type": "Point", "coordinates": [ 2640979.923010975122452, 296034.385217145085335 ] } },
{ "type": "Feature", "properties": { "FID_1": 66, "Line_Name": "Manayunk Norristown Line", "Station_Na": "Ivy Ridge", "Latitude": 40.034091941, "Longitude": -75.235473133 }, "geometry": { "type": "Point", "coordinates": [ 2672522.383547976613045, 265297.316442057490349 ] } },
{ "type": "Feature", "properties": { "FID_1": 67, "Line_Name": "Manayunk Norristown Line", "Station_Na": "Main Street", "Latitude": 40.116948987999997, "Longitude": -75.348791988000002 }, "geometry": { "type": "Point", "coordinates": [ 2639982.579861298203468, 294586.612850233912468 ] } },
{ "type": "Feature", "properties": { "FID_1": 68, "Line_Name": "Manayunk Norristown Line", "Station_Na": "Manayunk", "Latitude": 40.026788189000001, "Longitude": -75.224968112 }, "geometry": { "type": "Point", "coordinates": [ 2675538.861110806465149, 262721.692984387278557 ] } },
{ "type": "Feature", "properties": { "FID_1": 69, "Line_Name": "Manayunk Norristown Line", "Station_Na": "Miquon", "Latitude": 40.058529094999997, "Longitude": -75.266395888999995 }, "geometry": { "type": "Point", "coordinates": [ 2663616.551294058561325, 273950.840145483613014 ] } },
{ "type": "Feature", "properties": { "FID_1": 70, "Line_Name": "Manayunk Norristown Line", "Station_Na": "Norristown T.C.", "Latitude": 40.112675294, "Longitude": -75.344043892000002 }, "geometry": { "type": "Point", "coordinates": [ 2641352.43440505862236, 293066.487281560897827 ] } },
{ "type": "Feature", "properties": { "FID_1": 71, "Line_Name": "Manayunk Norristown Line", "Station_Na": "Spring Mill", "Latitude": 40.074216061000001, "Longitude": -75.286083004000005 }, "geometry": { "type": "Point", "coordinates": [ 2657948.50390313565731, 279508.773911476135254 ] } },
{ "type": "Feature", "properties": { "FID_1": 72, "Line_Name": "Manayunk Norristown Line", "Station_Na": "Wissahickon", "Latitude": 40.016566853, "Longitude": -75.210207052000001 }, "geometry": { "type": "Point", "coordinates": [ 2679778.062606140971184, 259118.300912976264954 ] } },
{ "type": "Feature", "properties": { "FID_1": 73, "Line_Name": "Media Elwyn Line", "Station_Na": "49th Street", "Latitude": 39.943609332999998, "Longitude": -75.216436755000004 }, "geometry": { "type": "Point", "coordinates": [ 2678796.259123548865318, 232501.991940975189209 ] } },
{ "type": "Feature", "properties": { "FID_1": 74, "Line_Name": "Media Elwyn Line", "Station_Na": "Angora", "Latitude": 39.944834374000003, "Longitude": -75.238534118000004 }, "geometry": { "type": "Point", "coordinates": [ 2672590.154737889766693, 232771.11607463657856 ] } },
{ "type": "Feature", "properties": { "FID_1": 75, "Line_Name": "Media Elwyn Line", "Station_Na": "Clifton-Aldan", "Latitude": 39.926671138000003, "Longitude": -75.290326878000002 }, "geometry": { "type": "Point", "coordinates": [ 2658258.111223548650742, 225748.468046471476555 ] } },
{ "type": "Feature", "properties": { "FID_1": 76, "Line_Name": "Media Elwyn Line", "Station_Na": "Elwyn", "Latitude": 39.907816963999998, "Longitude": -75.411187216000002 }, "geometry": { "type": "Point", "coordinates": [ 2624555.680597051978111, 217961.849761471152306 ] } },
{ "type": "Feature", "properties": { "FID_1": 77, "Line_Name": "Media Elwyn Line", "Station_Na": "Fernwood-Yeadon", "Latitude": 39.939681393000001, "Longitude": -75.256050373999997 }, "geometry": { "type": "Point", "coordinates": [ 2667733.786825969815254, 230755.560066387057304 ] } },
{ "type": "Feature", "properties": { "FID_1": 78, "Line_Name": "Media Elwyn Line", "Station_Na": "Gladstone", "Latitude": 39.932734335, "Longitude": -75.282147666 }, "geometry": { "type": "Point", "coordinates": [ 2660489.468309387564659, 228020.307990983128548 ] } },
{ "type": "Feature", "properties": { "FID_1": 79, "Line_Name": "Media Elwyn Line", "Station_Na": "Lansdowne", "Latitude": 39.937276493, "Longitude": -75.271605061000002 }, "geometry": { "type": "Point", "coordinates": [ 2663398.423121392726898, 229757.068296983838081 ] } },
{ "type": "Feature", "properties": { "FID_1": 80, "Line_Name": "Media Elwyn Line", "Station_Na": "Media", "Latitude": 39.91423358, "Longitude": -75.394656 }, "geometry": { "type": "Point", "coordinates": [ 2629129.383391886949539, 220421.716888979077339 ] } },
{ "type": "Feature", "properties": { "FID_1": 81, "Line_Name": "Media Elwyn Line", "Station_Na": "Morton", "Latitude": 39.908035065, "Longitude": -75.328361758 }, "geometry": { "type": "Point", "coordinates": [ 2647780.955668717622757, 218667.46285155415535 ] } },
{ "type": "Feature", "properties": { "FID_1": 82, "Line_Name": "Media Elwyn Line", "Station_Na": "Moylan-Rose Valley", "Latitude": 39.905839008000001, "Longitude": -75.388086536000003 }, "geometry": { "type": "Point", "coordinates": [ 2631053.330003306269646, 217414.033599898219109 ] } },
{ "type": "Feature", "properties": { "FID_1": 83, "Line_Name": "Media Elwyn Line", "Station_Na": "Primos", "Latitude": 39.921677486, "Longitude": -75.298368306 }, "geometry": { "type": "Point", "coordinates": [ 2656054.156313881278038, 223867.367477983236313 ] } },
{ "type": "Feature", "properties": { "FID_1": 84, "Line_Name": "Media Elwyn Line", "Station_Na": "Secane", "Latitude": 39.915761986, "Longitude": -75.309821346000007 }, "geometry": { "type": "Point", "coordinates": [ 2652902.537945225834846, 221624.321111053228378 ] } },
{ "type": "Feature", "properties": { "FID_1": 85, "Line_Name": "Media Elwyn Line", "Station_Na": "Swarthmore", "Latitude": 39.902294437000002, "Longitude": -75.351105575999995 }, "geometry": { "type": "Point", "coordinates": [ 2641459.589374467730522, 216402.907341316342354 ] } },
{ "type": "Feature", "properties": { "FID_1": 86, "Line_Name": "Media Elwyn Line", "Station_Na": "Wallingford", "Latitude": 39.903746828000003, "Longitude": -75.371611875 }, "geometry": { "type": "Point", "coordinates": [ 2635694.132401466369629, 216776.198589473962784 ] } },
{ "type": "Feature", "properties": { "FID_1": 87, "Line_Name": "Paoli Thorndale Line", "Station_Na": "Ardmore", "Latitude": 40.00841607, "Longitude": -75.290258296000005 }, "geometry": { "type": "Point", "coordinates": [ 2657448.031806975603104, 255515.673275724053383 ] } },
{ "type": "Feature", "properties": { "FID_1": 88, "Line_Name": "Paoli Thorndale Line", "Station_Na": "Berwyn", "Latitude": 40.048088620999998, "Longitude": -75.442462376999998 }, "geometry": { "type": "Point", "coordinates": [ 2614449.739194810390472, 268812.105016142129898 ] } },
{ "type": "Feature", "properties": { "FID_1": 89, "Line_Name": "Paoli Thorndale Line", "Station_Na": "Bryn Mawr", "Latitude": 40.021915915999998, "Longitude": -75.315840879000007 }, "geometry": { "type": "Point", "coordinates": [ 2650148.915499716997147, 260233.025061473250389 ] } },
{ "type": "Feature", "properties": { "FID_1": 90, "Line_Name": "Paoli Thorndale Line", "Station_Na": "Daylesford", "Latitude": 40.042933021000003, "Longitude": -75.460638274000004 }, "geometry": { "type": "Point", "coordinates": [ 2609411.586541473865509, 266802.214350894093513 ] } },
{ "type": "Feature", "properties": { "FID_1": 91, "Line_Name": "Paoli Thorndale Line", "Station_Na": "Devon", "Latitude": 40.047370276000002, "Longitude": -75.42296749 }, "geometry": { "type": "Point", "coordinates": [ 2619912.579647049307823, 268693.711552143096924 ] } },
{ "type": "Feature", "properties": { "FID_1": 92, "Line_Name": "Paoli Thorndale Line", "Station_Na": "Downingtown", "Latitude": 40.002075587, "Longitude": -75.710520988 }, "geometry": { "type": "Point", "coordinates": [ 2539813.373704060912132, 250207.975229725241661 ] } },
{ "type": "Feature", "properties": { "FID_1": 93, "Line_Name": "Paoli Thorndale Line", "Station_Na": "Exton", "Latitude": 40.019435224, "Longitude": -75.621724676 }, "geometry": { "type": "Point", "coordinates": [ 2564530.494545310735703, 257116.905965641140938 ] } },
{ "type": "Feature", "properties": { "FID_1": 94, "Line_Name": "Paoli Thorndale Line", "Station_Na": "Haverford", "Latitude": 40.014080456000002, "Longitude": -75.300128185000005 }, "geometry": { "type": "Point", "coordinates": [ 2654627.057133972644806, 257501.472781807184219 ] } },
{ "type": "Feature", "properties": { "FID_1": 95, "Line_Name": "Paoli Thorndale Line", "Station_Na": "Malvern", "Latitude": 40.03645616, "Longitude": -75.515535185999994 }, "geometry": { "type": "Point", "coordinates": [ 2594106.110918894410133, 264049.925564140081406 ] } },
{ "type": "Feature", "properties": { "FID_1": 96, "Line_Name": "Paoli Thorndale Line", "Station_Na": "Merion", "Latitude": 39.997501196000002, "Longitude": -75.251476937000007 }, "geometry": { "type": "Point", "coordinates": [ 2668419.876661136746407, 251846.097281560301781 ] } },
{ "type": "Feature", "properties": { "FID_1": 97, "Line_Name": "Paoli Thorndale Line", "Station_Na": "Narberth", "Latitude": 40.004878147, "Longitude": -75.261483967000004 }, "geometry": { "type": "Point", "coordinates": [ 2665541.604202464222908, 254453.172119900584221 ] } },
{ "type": "Feature", "properties": { "FID_1": 98, "Line_Name": "Paoli Thorndale Line", "Station_Na": "Overbrook", "Latitude": 39.98990226, "Longitude": -75.249839159000004 }, "geometry": { "type": "Point", "coordinates": [ 2668956.908067390322685, 249092.032579720020294 ] } },
{ "type": "Feature", "properties": { "FID_1": 99, "Line_Name": "Paoli Thorndale Line", "Station_Na": "Paoli", "Latitude": 40.042959, "Longitude": -75.48373 }, "geometry": { "type": "Point", "coordinates": [ 2602948.200518131256104, 266644.934153646230698 ] } },
{ "type": "Feature", "properties": { "FID_1": 100, "Line_Name": "Paoli Thorndale Line", "Station_Na": "Radnor", "Latitude": 40.044738576, "Longitude": -75.359436185999996 }, "geometry": { "type": "Point", "coordinates": [ 2637718.713326051831245, 268210.400182813405991 ] } },
{ "type": "Feature", "properties": { "FID_1": 101, "Line_Name": "Paoli Thorndale Line", "Station_Na": "Rosemont", "Latitude": 40.028238891999997, "Longitude": -75.327258471999997 }, "geometry": { "type": "Point", "coordinates": [ 2646889.218935132026672, 262447.587889567017555 ] } },
{ "type": "Feature", "properties": { "FID_1": 102, "Line_Name": "Paoli Thorndale Line", "Station_Na": "St. Davids", "Latitude": 40.044099451999998, "Longitude": -75.373431952000004 }, "geometry": { "type": "Point", "coordinates": [ 2633807.931449472904205, 267871.913983136415482 ] } },
{ "type": "Feature", "properties": { "FID_1": 103, "Line_Name": "Paoli Thorndale Line", "Station_Na": "Strafford", "Latitude": 40.049694657000003, "Longitude": -75.403731692999997 }, "geometry": { "type": "Point", "coordinates": [ 2625273.547927722334862, 269682.6209916472435 ] } },
{ "type": "Feature", "properties": { "FID_1": 104, "Line_Name": "Paoli Thorndale Line", "Station_Na": "Thorndale", "Latitude": 39.992682170999998, "Longitude": -75.762704365999994 }, "geometry": { "type": "Point", "coordinates": [ 2525274.909670799970627, 246453.713053226470947 ] } },
{ "type": "Feature", "properties": { "FID_1": 105, "Line_Name": "Paoli Thorndale Line", "Station_Na": "Villanova", "Latitude": 40.038651692999998, "Longitude": -75.342323542000003 }, "geometry": { "type": "Point", "coordinates": [ 2642568.514978140592575, 266124.017872646450996 ] } },
{ "type": "Feature", "properties": { "FID_1": 106, "Line_Name": "Paoli Thorndale Line", "Station_Na": "Wayne", "Latitude": 40.045852546, "Longitude": -75.387251711000005 }, "geometry": { "type": "Point", "coordinates": [ 2629923.007132723927498, 268406.497231557965279 ] } },
{ "type": "Feature", "properties": { "FID_1": 107, "Line_Name": "Paoli Thorndale Line", "Station_Na": "Whitford", "Latitude": 40.014710963, "Longitude": -75.638456657999996 }, "geometry": { "type": "Point", "coordinates": [ 2559886.695105880498886, 255283.947689309716225 ] } },
{ "type": "Feature", "properties": { "FID_1": 108, "Line_Name": "Paoli Thorndale Line", "Station_Na": "Wynnewood", "Latitude": 40.002836672000001, "Longitude": -75.27309096 }, "geometry": { "type": "Point", "coordinates": [ 2662312.160530135035515, 253618.390652969479561 ] } },
{ "type": "Feature", "properties": { "FID_1": 109, "Line_Name": "Trenton Line", "Station_Na": "Bridesburg", "Latitude": 40.01068534, "Longitude": -75.069943084000002 }, "geometry": { "type": "Point", "coordinates": [ 2719112.713267385959625, 258137.653596058487892 ] } },
{ "type": "Feature", "properties": { "FID_1": 110, "Line_Name": "Trenton Line", "Station_Na": "Bristol", "Latitude": 40.10493855, "Longitude": -74.854819763999998 }, "geometry": { "type": "Point", "coordinates": [ 2778216.769599720835686, 294355.915476977825165 ] } },
{ "type": "Feature", "properties": { "FID_1": 111, "Line_Name": "Trenton Line", "Station_Na": "Cornwells Heights", "Latitude": 40.071845338000003, "Longitude": -74.952156161000005 }, "geometry": { "type": "Point", "coordinates": [ 2751385.129037380218506, 281429.165739983320236 ] } },
{ "type": "Feature", "properties": { "FID_1": 112, "Line_Name": "Trenton Line", "Station_Na": "Croydon", "Latitude": 40.093554229, "Longitude": -74.906808033000004 }, "geometry": { "type": "Point", "coordinates": [ 2763815.397811964154243, 289738.538884982466698 ] } },
{ "type": "Feature", "properties": { "FID_1": 113, "Line_Name": "Trenton Line", "Station_Na": "Eddington", "Latitude": 40.082957925000002, "Longitude": -74.933730952999994 }, "geometry": { "type": "Point", "coordinates": [ 2756410.000221222639084, 285639.121558889746666 ] } },
{ "type": "Feature", "properties": { "FID_1": 114, "Line_Name": "Trenton Line", "Station_Na": "Holmesburg Junction", "Latitude": 40.032745359000003, "Longitude": -75.023679224000006 }, "geometry": { "type": "Point", "coordinates": [ 2731817.848618224263191, 266566.527814388275146 ] } },
{ "type": "Feature", "properties": { "FID_1": 115, "Line_Name": "Trenton Line", "Station_Na": "Levittown", "Latitude": 40.140138124000003, "Longitude": -74.81714811000001 }, "geometry": { "type": "Point", "coordinates": [ 2788323.058114141225815, 307519.173927307128906 ] } },
{ "type": "Feature", "properties": { "FID_1": 116, "Line_Name": "Trenton Line", "Station_Na": "North Philadelphia", "Latitude": 39.997272902, "Longitude": -75.155269965000002 }, "geometry": { "type": "Point", "coordinates": [ 2695365.470407634973526, 252540.142153307795525 ] } },
{ "type": "Feature", "properties": { "FID_1": 117, "Line_Name": "Trenton Line", "Station_Na": "Tacony", "Latitude": 40.023237985000002, "Longitude": -75.039025991000003 }, "geometry": { "type": "Point", "coordinates": [ 2727628.705749809741974, 262972.509411886334419 ] } },
{ "type": "Feature", "properties": { "FID_1": 118, "Line_Name": "Trenton Line", "Station_Na": "Torresdale", "Latitude": 40.054404132000002, "Longitude": -74.984499147999998 }, "geometry": { "type": "Point", "coordinates": [ 2742536.916746973991394, 274793.670808896422386 ] } },
{ "type": "Feature", "properties": { "FID_1": 119, "Line_Name": "Trenton Line", "Station_Na": "Trenton Transit Center", "Latitude": 40.21842169, "Longitude": -74.753989833999995 }, "geometry": { "type": "Point", "coordinates": [ 2805003.745881304144859, 336613.055043891072273 ] } },
{ "type": "Feature", "properties": { "FID_1": 120, "Line_Name": "Warminster Line", "Station_Na": "Ardsley", "Latitude": 40.114130054, "Longitude": -75.153164106999995 }, "geometry": { "type": "Point", "coordinates": [ 2694703.633148640394211, 295108.208591803908348 ] } },
{ "type": "Feature", "properties": { "FID_1": 121, "Line_Name": "Warminster Line", "Station_Na": "Crestmont", "Latitude": 40.133248863, "Longitude": -75.118644665999994 }, "geometry": { "type": "Point", "coordinates": [ 2704146.634931892156601, 302355.558926478028297 ] } },
{ "type": "Feature", "properties": { "FID_1": 122, "Line_Name": "Warminster Line", "Station_Na": "Hatboro", "Latitude": 40.175587874999998, "Longitude": -75.102832575999997 }, "geometry": { "type": "Point", "coordinates": [ 2708103.632267221808434, 317904.247317224740982 ] } },
{ "type": "Feature", "properties": { "FID_1": 123, "Line_Name": "Warminster Line", "Station_Na": "Roslyn", "Latitude": 40.120909292999997, "Longitude": -75.13404812 }, "geometry": { "type": "Point", "coordinates": [ 2699974.701674714684486, 297734.472040057182312 ] } },
{ "type": "Feature", "properties": { "FID_1": 124, "Line_Name": "Warminster Line", "Station_Na": "Warminster", "Latitude": 40.195142506000003, "Longitude": -75.088976024000004 }, "geometry": { "type": "Point", "coordinates": [ 2711759.287357464432716, 325140.860796719789505 ] } },
{ "type": "Feature", "properties": { "FID_1": 125, "Line_Name": "Warminster Line", "Station_Na": "Willow Grove", "Latitude": 40.143685134000002, "Longitude": -75.114347276000004 }, "geometry": { "type": "Point", "coordinates": [ 2705234.249226465821266, 306191.474154889583588 ] } },
{ "type": "Feature", "properties": { "FID_1": 126, "Line_Name": "West Trenton Line", "Station_Na": "Bethayres", "Latitude": 40.116477103000001, "Longitude": -75.068690098000005 }, "geometry": { "type": "Point", "coordinates": [ 2718293.616152301430702, 296668.750746309757233 ] } },
{ "type": "Feature", "properties": { "FID_1": 127, "Line_Name": "West Trenton Line", "Station_Na": "Forest Hills", "Latitude": 40.127821327, "Longitude": -75.020920366 }, "geometry": { "type": "Point", "coordinates": [ 2731519.888256132602692, 301208.500525057315826 ] } },
{ "type": "Feature", "properties": { "FID_1": 128, "Line_Name": "West Trenton Line", "Station_Na": "Langhorne", "Latitude": 40.160661005000001, "Longitude": -74.913019004000006 }, "geometry": { "type": "Point", "coordinates": [ 2761293.439601302146912, 314116.051481559872627 ] } },
{ "type": "Feature", "properties": { "FID_1": 129, "Line_Name": "West Trenton Line", "Station_Na": "Meadowbrook", "Latitude": 40.111320616999997, "Longitude": -75.092473004 }, "geometry": { "type": "Point", "coordinates": [ 2711701.575858727097511, 294590.142698809504509 ] } },
{ "type": "Feature", "properties": { "FID_1": 130, "Line_Name": "West Trenton Line", "Station_Na": "Neshaminy Falls", "Latitude": 40.146827731999998, "Longitude": -74.962169296 }, "geometry": { "type": "Point", "coordinates": [ 2747722.075996056199074, 308641.883296057581902 ] } },
{ "type": "Feature", "properties": { "FID_1": 131, "Line_Name": "West Trenton Line", "Station_Na": "Noble", "Latitude": 40.104345463000001, "Longitude": -75.124613187999998 }, "geometry": { "type": "Point", "coordinates": [ 2702791.482130393385887, 291781.477712482213974 ] } },
{ "type": "Feature", "properties": { "FID_1": 132, "Line_Name": "West Trenton Line", "Station_Na": "Philmont", "Latitude": 40.121869783000001, "Longitude": -75.043754031000006 }, "geometry": { "type": "Point", "coordinates": [ 2725204.294588133692741, 298845.000002726912498 ] } },
{ "type": "Feature", "properties": { "FID_1": 133, "Line_Name": "West Trenton Line", "Station_Na": "Rydal", "Latitude": 40.107378187999998, "Longitude": -75.110644128999994 }, "geometry": { "type": "Point", "coordinates": [ 2706664.29525089263916, 293002.21805314719677 ] } },
{ "type": "Feature", "properties": { "FID_1": 134, "Line_Name": "West Trenton Line", "Station_Na": "Somerton", "Latitude": 40.130626442000001, "Longitude": -75.0120294 }, "geometry": { "type": "Point", "coordinates": [ 2733973.228165715932846, 302306.814929470419884 ] } },
{ "type": "Feature", "properties": { "FID_1": 135, "Line_Name": "West Trenton Line", "Station_Na": "Trevose", "Latitude": 40.140142290999997, "Longitude": -74.982746671000001 }, "geometry": { "type": "Point", "coordinates": [ 2742048.723497644066811, 306026.773368805646896 ] } },
{ "type": "Feature", "properties": { "FID_1": 136, "Line_Name": "West Trenton Line", "Station_Na": "West Trenton", "Latitude": 40.257296742000001, "Longitude": -74.815518291000004 }, "geometry": { "type": "Point", "coordinates": [ 2787360.550524726510048, 350190.156498566269875 ] } },
{ "type": "Feature", "properties": { "FID_1": 137, "Line_Name": "West Trenton Line", "Station_Na": "Woodbourne", "Latitude": 40.190848574, "Longitude": -74.890910827 }, "geometry": { "type": "Point", "coordinates": [ 2767113.442396968603134, 325306.457906469702721 ] } },
{ "type": "Feature", "properties": { "FID_1": 138, "Line_Name": "West Trenton Line", "Station_Na": "Yardley", "Latitude": 40.23509412, "Longitude": -74.83094707 }, "geometry": { "type": "Point", "coordinates": [ 2783324.058925807476044, 341963.71429006755352 ] } },
{ "type": "Feature", "properties": { "FID_1": 139, "Line_Name": "Wilmington Newark Line", "Station_Na": "Chester T.C.", "Latitude": 39.849552515, "Longitude": -75.359930786999996 }, "geometry": { "type": "Point", "coordinates": [ 2639504.386591970920563, 197129.899627566337585 ] } },
{ "type": "Feature", "properties": { "FID_1": 140, "Line_Name": "Wilmington Newark Line", "Station_Na": "Churchmans Crossing", "Latitude": 39.694532238999997, "Longitude": -75.673147043 }, "geometry": { "type": "Point", "coordinates": [ 2552915.372106298804283, 138450.395923808217049 ] } },
{ "type": "Feature", "properties": { "FID_1": 141, "Line_Name": "Wilmington Newark Line", "Station_Na": "Claymont", "Latitude": 39.797852172, "Longitude": -75.451993965 }, "geometry": { "type": "Point", "coordinates": [ 2614153.941558048129082, 177616.737210392951965 ] } },
{ "type": "Feature", "properties": { "FID_1": 142, "Line_Name": "Wilmington Newark Line", "Station_Na": "Crum Lynne", "Latitude": 39.871851704000001, "Longitude": -75.330966361999998 }, "geometry": { "type": "Point", "coordinates": [ 2647411.543677881360054, 205471.44790506362915 ] } },
{ "type": "Feature", "properties": { "FID_1": 143, "Line_Name": "Wilmington Newark Line", "Station_Na": "Curtis Park", "Latitude": 39.908011672000001, "Longitude": -75.265025285999997 }, "geometry": { "type": "Point", "coordinates": [ 2665542.726247474551201, 219152.490096732974052 ] } },
{ "type": "Feature", "properties": { "FID_1": 144, "Line_Name": "Wilmington Newark Line", "Station_Na": "Darby", "Latitude": 39.912949028, "Longitude": -75.25455341 }, "geometry": { "type": "Point", "coordinates": [ 2668428.518376141786575, 221033.189419314265251 ] } },
{ "type": "Feature", "properties": { "FID_1": 145, "Line_Name": "Wilmington Newark Line", "Station_Na": "Eddystone", "Latitude": 39.857423661, "Longitude": -75.341661355 }, "geometry": { "type": "Point", "coordinates": [ 2644554.014616057276726, 200135.492369636893272 ] } },
{ "type": "Feature", "properties": { "FID_1": 146, "Line_Name": "Wilmington Newark Line", "Station_Na": "Folcroft", "Latitude": 39.900556051000002, "Longitude": -75.279755984999994 }, "geometry": { "type": "Point", "coordinates": [ 2661487.767493888735771, 216321.681125804781914 ] } },
{ "type": "Feature", "properties": { "FID_1": 147, "Line_Name": "Wilmington Newark Line", "Station_Na": "Glenolden", "Latitude": 39.89627447, "Longitude": -75.290017164000005 }, "geometry": { "type": "Point", "coordinates": [ 2658653.346653550863266, 214682.231648802757263 ] } },
{ "type": "Feature", "properties": { "FID_1": 148, "Line_Name": "Wilmington Newark Line", "Station_Na": "Highland Avenue", "Latitude": 39.833686115, "Longitude": -75.39303072 }, "geometry": { "type": "Point", "coordinates": [ 2630368.158473387360573, 191102.360501557588577 ] } },
{ "type": "Feature", "properties": { "FID_1": 149, "Line_Name": "Wilmington Newark Line", "Station_Na": "Marcus Hook", "Latitude": 39.821655603000004, "Longitude": -75.419539239000002 }, "geometry": { "type": "Point", "coordinates": [ 2623041.59832338988781, 186523.833241313695908 ] } },
{ "type": "Feature", "properties": { "FID_1": 150, "Line_Name": "Wilmington Newark Line", "Station_Na": "Newark", "Latitude": 39.67018255, "Longitude": -75.7527934 }, "geometry": { "type": "Point", "coordinates": [ 2530707.823017552495003, 129065.499339312314987 ] } },
{ "type": "Feature", "properties": { "FID_1": 151, "Line_Name": "Wilmington Newark Line", "Station_Na": "Norwood", "Latitude": 39.891220269000002, "Longitude": -75.302156045000004 }, "geometry": { "type": "Point", "coordinates": [ 2655299.66307221353054, 212747.154810309410095 ] } },
{ "type": "Feature", "properties": { "FID_1": 152, "Line_Name": "Wilmington Newark Line", "Station_Na": "Prospect Park", "Latitude": 39.888127175000001, "Longitude": -75.309415496 }, "geometry": { "type": "Point", "coordinates": [ 2653294.511898800730705, 211564.454091727733612 ] } },
{ "type": "Feature", "properties": { "FID_1": 153, "Line_Name": "Wilmington Newark Line", "Station_Na": "Ridley Park", "Latitude": 39.88052708, "Longitude": -75.322089237 }, "geometry": { "type": "Point", "coordinates": [ 2649815.441757217049599, 208698.904048562049866 ] } },
{ "type": "Feature", "properties": { "FID_1": 154, "Line_Name": "Wilmington Newark Line", "Station_Na": "Sharon Hill", "Latitude": 39.904257266000002, "Longitude": -75.270915682999998 }, "geometry": { "type": "Point", "coordinates": [ 2663929.276718467473984, 217738.929603636264801 ] } },
{ "type": "Feature", "properties": { "FID_1": 155, "Line_Name": "Wilmington Newark Line", "Station_Na": "Wilmington", "Latitude": 39.736952045000002, "Longitude": -75.550934017000003 }, "geometry": { "type": "Point", "coordinates": [ 2586913.75916188955307, 154730.980488553643227 ] } }
]
}
