{
"type": "FeatureCollection",
"name": "Trolley_Stops",
"crs": { "type": "name", "properties": { "name": "urn:ogc:def:crs:EPSG::2272" } },
"features": [
{ "type": "Feature", "properties": { "FID_1": 1, "Route": "101", "Direction": "Eastbound", "Sequence": 8, "Stop_ID": 1949, "Stop_Abbre": "BOWSTAEA", "Stop_Name": "Providence Rd Station", "Latitude": 39.916626, "Longitude": -75.380614, "Sign_Up": "Victory" }, "geometry": { "type": "Point", "coordinates": [ 2633043.572085797786713, 221398.274975225329399 ] } },
{ "type": "Feature", "properties": { "FID_1": 2, "Route": "15", "Direction": "Eastbound", "Sequence": 41, "Stop_ID": 20978, "Stop_Abbre": "GIRFROEA", "Stop_Name": "Girard Av & Front St", "Latitude": 39.968851, "Longitude": -75.136358, "Sign_Up": "Callowhill" }, "geometry": { "type": "Point", "coordinates": [ 2700968.13767996430397, 242347.306239813566208 ] } },
{ "type": "Feature", "properties": { "FID_1": 3, "Route": "101", "Direction": "Westbound", "Sequence": 23, "Stop_ID": 18607, "Stop_Abbre": "THOSTASW", "Stop_Name": "Thomson Av Station - FS", "Latitude": 39.921159, "Longitude": -75.345542, "Sign_Up": "Victory" }, "geometry": { "type": "Point", "coordinates": [ 2642832.86582738161087, 223314.821338981389999 ] } },
{ "type": "Feature", "properties": { "FID_1": 4, "Route": "102", "Direction": "Eastbound", "Sequence": 11, "Stop_ID": 30376, "Stop_Abbre": "BALSTANO", "Stop_Name": "Baltimore Av Station - FS", "Latitude": 39.931313, "Longitude": -75.292841, "Sign_Up": "Victory" }, "geometry": { "type": "Point", "coordinates": [ 2657506.224603965878487, 227419.133012220263481 ] } },
{ "type": "Feature", "properties": { "FID_1": 5, "Route": "10", "Direction": "Westbound", "Sequence": 20, "Stop_ID": 20674, "Stop_Abbre": "LANOGDNW", "Stop_Name": "Lancaster Av & Ogden St", "Latitude": 39.968565, "Longitude": -75.210998, "Sign_Up": "Callowhill" }, "geometry": { "type": "Point", "coordinates": [ 2680059.285468891263008, 241632.927091136574745 ] } },
{ "type": "Feature", "properties": { "FID_1": 6, "Route": "10", "Direction": "Westbound", "Sequence": 31, "Stop_ID": 20687, "Stop_Abbre": "LAN58TWE", "Stop_Name": "Lansdowne Av & 58th St", "Latitude": 39.976363, "Longitude": -75.23675, "Sign_Up": "Callowhill" }, "geometry": { "type": "Point", "coordinates": [ 2672763.381425559520721, 244266.007454887032509 ] } },
{ "type": "Feature", "properties": { "FID_1": 7, "Route": "13", "Direction": "Eastbound", "Sequence": 5, "Stop_ID": 20772, "Stop_Abbre": "9THCEDNE", "Stop_Name": "9th St & Cedar Av", "Latitude": 39.922566, "Longitude": -75.255994, "Sign_Up": "Elmwood" }, "geometry": { "type": "Point", "coordinates": [ 2667925.643069550395012, 224523.665706053376198 ] } },
{ "type": "Feature", "properties": { "FID_1": 8, "Route": "13", "Direction": "Eastbound", "Sequence": 14, "Stop_ID": 20782, "Stop_Abbre": "65TCHEEA", "Stop_Name": "65th St & Chester Av", "Latitude": 39.928628, "Longitude": -75.238897, "Sign_Up": "Elmwood" }, "geometry": { "type": "Point", "coordinates": [ 2672656.295025557279587, 226866.921190142631531 ] } },
{ "type": "Feature", "properties": { "FID_1": 9, "Route": "13", "Direction": "Westbound", "Sequence": 11, "Stop_ID": 20807, "Stop_Abbre": "CHE42NWE", "Stop_Name": "Chester Av & 42nd St", "Latitude": 39.948549, "Longitude": -75.206879, "Sign_Up": "Elmwood" }, "geometry": { "type": "Point", "coordinates": [ 2681423.266664803028107, 234377.696194812655449 ] } },
{ "type": "Feature", "properties": { "FID_1": 10, "Route": "34", "Direction": "Westbound", "Sequence": 30, "Stop_ID": 20894, "Stop_Abbre": "BAL58TWE", "Stop_Name": "Baltimore Av & 58th St", "Latitude": 39.945988, "Longitude": -75.239937, "Sign_Up": "Elmwood" }, "geometry": { "type": "Point", "coordinates": [ 2672185.019721388816833, 233180.009613811969757 ] } },
{ "type": "Feature", "properties": { "FID_1": 11, "Route": "36", "Direction": "Eastbound", "Sequence": 34, "Stop_ID": 20957, "Stop_Abbre": "49TWOONW", "Stop_Name": "49th St & Woodland Av", "Latitude": 39.940794, "Longitude": -75.212429, "Sign_Up": "Elmwood" }, "geometry": { "type": "Point", "coordinates": [ 2679949.006818056106567, 231509.100882142782211 ] } },
{ "type": "Feature", "properties": { "FID_1": 12, "Route": "36", "Direction": "Eastbound", "Sequence": 11, "Stop_ID": 20934, "Stop_Abbre": "ELM71SNE", "Stop_Name": "Elmwood Av & 71st St", "Latitude": 39.91608, "Longitude": -75.239013, "Sign_Up": "Elmwood" }, "geometry": { "type": "Point", "coordinates": [ 2672753.726917296648026, 222296.836170226335526 ] } },
{ "type": "Feature", "properties": { "FID_1": 13, "Route": "15", "Direction": "Eastbound", "Sequence": 11, "Stop_ID": 21058, "Stop_Abbre": "GIRLANEA", "Stop_Name": "Girard Av & Lancaster Av", "Latitude": 39.972978, "Longitude": -75.218521, "Sign_Up": "Callowhill" }, "geometry": { "type": "Point", "coordinates": [ 2677905.458083644509315, 243179.318027228116989 ] } },
{ "type": "Feature", "properties": { "FID_1": 14, "Route": "15", "Direction": "Westbound", "Sequence": 58, "Stop_ID": 21033, "Stop_Abbre": "GIR52NWE", "Stop_Name": "Girard Av & 52nd St", "Latitude": 39.971473, "Longitude": -75.22579, "Sign_Up": "Callowhill" }, "geometry": { "type": "Point", "coordinates": [ 2675884.666193470358849, 242572.989187389612198 ] } },
{ "type": "Feature", "properties": { "FID_1": 15, "Route": "15", "Direction": "Eastbound", "Sequence": 61, "Stop_ID": 15044, "Stop_Abbre": "ALLEMRSE", "Stop_Name": "Allegheny Av & Emery St", "Latitude": 39.983331, "Longitude": -75.101873, "Sign_Up": "Callowhill" }, "geometry": { "type": "Point", "coordinates": [ 2710471.456927880644798, 247907.651418313384056 ] } },
{ "type": "Feature", "properties": { "FID_1": 16, "Route": "15", "Direction": "Westbound", "Sequence": 12, "Stop_ID": 32301, "Stop_Abbre": "ARAHU2SW", "Stop_Name": "Aramingo Av & Huntingdon St - FS", "Latitude": 39.978742, "Longitude": -75.118787, "Sign_Up": "Callowhill" }, "geometry": { "type": "Point", "coordinates": [ 2705783.581461131572723, 246095.04841622710228 ] } },
{ "type": "Feature", "properties": { "FID_1": 17, "Route": "101", "Direction": "Westbound", "Sequence": 35, "Stop_ID": 18613, "Stop_Abbre": "VETSTAWE", "Stop_Name": "Veterans Square Station", "Latitude": 39.918343, "Longitude": -75.391897, "Sign_Up": "Victory" }, "geometry": { "type": "Point", "coordinates": [ 2629863.077790632843971, 221938.821138232946396 ] } },
{ "type": "Feature", "properties": { "FID_1": 18, "Route": "15", "Direction": "Westbound", "Sequence": 8, "Stop_ID": 20982, "Stop_Abbre": "RICCAMSW", "Stop_Name": "Belgrade St & Cambria St - detour", "Latitude": 39.982428, "Longitude": -75.11186, "Sign_Up": "Callowhill" }, "geometry": { "type": "Point", "coordinates": [ 2707683.888684138655663, 247495.101062312722206 ] } },
{ "type": "Feature", "properties": { "FID_1": 19, "Route": "13", "Direction": "Westbound", "Sequence": 43, "Stop_ID": 20838, "Stop_Abbre": "10TMULSW", "Stop_Name": "10th St & Mulberry Av", "Latitude": 39.923621, "Longitude": -75.257349, "Sign_Up": "Elmwood" }, "geometry": { "type": "Point", "coordinates": [ 2667534.898444220423698, 224897.101310893893242 ] } },
{ "type": "Feature", "properties": { "FID_1": 20, "Route": "15", "Direction": "Eastbound", "Sequence": 44, "Stop_ID": 24039, "Stop_Abbre": "FRADELSO", "Stop_Name": "Frankford Av & Delaware Av", "Latitude": 39.964812, "Longitude": -75.134485, "Sign_Up": "Callowhill" }, "geometry": { "type": "Point", "coordinates": [ 2701536.458393722772598, 240892.156591057777405 ] } },
{ "type": "Feature", "properties": { "FID_1": 21, "Route": "36", "Direction": "Westbound", "Sequence": 17, "Stop_ID": 20739, "Stop_Abbre": "WOO46TSW", "Stop_Name": "Woodland Av & 46th St", "Latitude": 39.944537, "Longitude": -75.209725, "Sign_Up": "Elmwood" }, "geometry": { "type": "Point", "coordinates": [ 2680667.691404297947884, 232893.839254394173622 ] } },
{ "type": "Feature", "properties": { "FID_1": 22, "Route": "101", "Direction": "Westbound", "Sequence": 11, "Stop_ID": 1940, "Stop_Abbre": "DRXSTASW", "Stop_Name": "Drexel Hill Junction Station", "Latitude": 39.947092, "Longitude": -75.292764, "Sign_Up": "Victory" }, "geometry": { "type": "Point", "coordinates": [ 2657367.894828140735626, 233165.512595564126968 ] } },
{ "type": "Feature", "properties": { "FID_1": 23, "Route": "10", "Direction": "Westbound", "Sequence": 27, "Stop_ID": 20683, "Stop_Abbre": "LAN54TWE", "Stop_Name": "Lansdowne Av & 54th St", "Latitude": 39.977129, "Longitude": -75.229755, "Sign_Up": "Callowhill" }, "geometry": { "type": "Point", "coordinates": [ 2674715.026144310832024, 244600.795171141624451 ] } },
{ "type": "Feature", "properties": { "FID_1": 24, "Route": "11", "Direction": "Westbound", "Sequence": 6, "Stop_ID": 20658, "Stop_Abbre": "33MAWEU", "Stop_Name": "33rd St Trolley Station", "Latitude": 39.95488, "Longitude": -75.189676, "Sign_Up": "Elmwood" }, "geometry": { "type": "Point", "coordinates": [ 2686177.64659172296524, 236822.342552229762077 ] } },
{ "type": "Feature", "properties": { "FID_1": 25, "Route": "11", "Direction": "Eastbound", "Sequence": 26, "Stop_ID": 20720, "Stop_Abbre": "WOO56TNE", "Stop_Name": "Woodland Av & 56th St", "Latitude": 39.934339, "Longitude": -75.22181, "Sign_Up": "Elmwood" }, "geometry": { "type": "Point", "coordinates": [ 2677386.922703385353088, 229083.18972347676754 ] } },
{ "type": "Feature", "properties": { "FID_1": 26, "Route": "13", "Direction": "Westbound", "Sequence": 10, "Stop_ID": 21248, "Stop_Abbre": "40TMARSO", "Stop_Name": "40th St & Market St", "Latitude": 39.957259, "Longitude": -75.202021, "Sign_Up": "Elmwood" }, "geometry": { "type": "Point", "coordinates": [ 2682693.21786504983902, 237588.527043476700783 ] } },
{ "type": "Feature", "properties": { "FID_1": 27, "Route": "34", "Direction": "Westbound", "Sequence": 14, "Stop_ID": 20880, "Stop_Abbre": "BAL43RWE", "Stop_Name": "Baltimore Av & 43rd St", "Latitude": 39.949641, "Longitude": -75.209154, "Sign_Up": "Elmwood" }, "geometry": { "type": "Point", "coordinates": [ 2680774.239747643470764, 234756.970042556524277 ] } },
{ "type": "Feature", "properties": { "FID_1": 28, "Route": "34", "Direction": "Westbound", "Sequence": 2, "Stop_ID": 20659, "Stop_Abbre": "MA15WEU", "Stop_Name": "15th St Trolley Station", "Latitude": 39.952672, "Longitude": -75.165345, "Sign_Up": "Elmwood" }, "geometry": { "type": "Point", "coordinates": [ 2693019.397343888878822, 236217.021584391593933 ] } },
{ "type": "Feature", "properties": { "FID_1": 29, "Route": "10", "Direction": "Eastbound", "Sequence": 26, "Stop_ID": 20635, "Stop_Abbre": "LAN40TSE", "Stop_Name": "Lancaster Av & 40th St", "Latitude": 39.963151, "Longitude": -75.20244, "Sign_Up": "Callowhill" }, "geometry": { "type": "Point", "coordinates": [ 2682513.897685632109642, 239730.595593973994255 ] } },
{ "type": "Feature", "properties": { "FID_1": 30, "Route": "34", "Direction": "Eastbound", "Sequence": 20, "Stop_ID": 20864, "Stop_Abbre": "BAL55TNE", "Stop_Name": "Baltimore Av & 55th St", "Latitude": 39.947246, "Longitude": -75.233746, "Sign_Up": "Elmwood" }, "geometry": { "type": "Point", "coordinates": [ 2673907.112733885645866, 233687.482352137565613 ] } },
{ "type": "Feature", "properties": { "FID_1": 31, "Route": "11", "Direction": "Westbound", "Sequence": 3, "Stop_ID": 20660, "Stop_Abbre": "MA19WEU", "Stop_Name": "19th St Trolley Station", "Latitude": 39.953425, "Longitude": -75.171483, "Sign_Up": "Elmwood" }, "geometry": { "type": "Point", "coordinates": [ 2691291.302702963352203, 236440.911884650588036 ] } },
{ "type": "Feature", "properties": { "FID_1": 32, "Route": "102", "Direction": "Westbound", "Sequence": 25, "Stop_ID": 2099, "Stop_Abbre": "MACSTASE", "Stop_Name": "MacDade Blvd Station", "Latitude": 39.910255, "Longitude": -75.280973, "Sign_Up": "Victory" }, "geometry": { "type": "Point", "coordinates": [ 2661047.674870133399963, 219843.902755886316299 ] } },
{ "type": "Feature", "properties": { "FID_1": 33, "Route": "101", "Direction": "Westbound", "Sequence": 31, "Stop_ID": 18610, "Stop_Abbre": "EDGSTAWE", "Stop_Name": "Edgmont St Station", "Latitude": 39.917467, "Longitude": -75.385524, "Sign_Up": "Victory" }, "geometry": { "type": "Point", "coordinates": [ 2631658.589619547128677, 221667.616628140211105 ] } },
{ "type": "Feature", "properties": { "FID_1": 34, "Route": "36", "Direction": "Eastbound", "Sequence": 1, "Stop_ID": 612, "Stop_Abbre": "EASLOOSO", "Stop_Name": "Island Av & 80th St Eastwick Loop", "Latitude": 39.898668, "Longitude": -75.239319, "Sign_Up": "Elmwood" }, "geometry": { "type": "Point", "coordinates": [ 2672848.229352965950966, 215954.085732400417328 ] } },
{ "type": "Feature", "properties": { "FID_1": 35, "Route": "15", "Direction": "Eastbound", "Sequence": 52, "Stop_ID": 31796, "Stop_Abbre": "THOCUMNE", "Stop_Name": "Thompson St & Cumberland St - detour", "Latitude": 39.975968, "Longitude": -75.11959, "Sign_Up": "Callowhill" }, "geometry": { "type": "Point", "coordinates": [ 2705588.736706465482712, 245078.274859219789505 ] } },
{ "type": "Feature", "properties": { "FID_1": 36, "Route": "13", "Direction": "Westbound", "Sequence": 35, "Stop_ID": 21209, "Stop_Abbre": "65TCHSSW", "Stop_Name": "Chester Av & 65th St - FS", "Latitude": 39.929565, "Longitude": -75.244703, "Sign_Up": "Elmwood" }, "geometry": { "type": "Point", "coordinates": [ 2671018.950203135609627, 227161.874996557831764 ] } },
{ "type": "Feature", "properties": { "FID_1": 37, "Route": "34", "Direction": "Eastbound", "Sequence": 14, "Stop_ID": 599, "Stop_Abbre": "ANGLOOWE", "Stop_Name": "Baltimore Av & 61st St Angora Loop", "Latitude": 39.943963, "Longitude": -75.246342, "Sign_Up": "Elmwood" }, "geometry": { "type": "Point", "coordinates": [ 2670410.800500810146332, 232391.663749560713768 ] } },
{ "type": "Feature", "properties": { "FID_1": 38, "Route": "15", "Direction": "Eastbound", "Sequence": 33, "Stop_ID": 352, "Stop_Abbre": "GIRBROEA", "Stop_Name": "Girard Av & Broad St", "Latitude": 39.971428, "Longitude": -75.159594, "Sign_Up": "Callowhill" }, "geometry": { "type": "Point", "coordinates": [ 2694430.643537133932114, 243093.791295394301414 ] } },
{ "type": "Feature", "properties": { "FID_1": 39, "Route": "13", "Direction": "Eastbound", "Sequence": 41, "Stop_ID": 20642, "Stop_Abbre": "33MAEAU", "Stop_Name": "33rd St Trolley Station", "Latitude": 39.954773, "Longitude": -75.1897, "Sign_Up": "Elmwood" }, "geometry": { "type": "Point", "coordinates": [ 2686172.051130473613739, 236783.185806393623352 ] } },
{ "type": "Feature", "properties": { "FID_1": 40, "Route": "13", "Direction": "Eastbound", "Sequence": 29, "Stop_ID": 20797, "Stop_Abbre": "CHE51SNE", "Stop_Name": "Chester Av & 51st St", "Latitude": 39.942349, "Longitude": -75.219048, "Sign_Up": "Elmwood" }, "geometry": { "type": "Point", "coordinates": [ 2678077.541728973388672, 232022.07262521982193 ] } },
{ "type": "Feature", "properties": { "FID_1": 41, "Route": "102", "Direction": "Eastbound", "Sequence": 10, "Stop_ID": 30375, "Stop_Abbre": "PENSTANO", "Stop_Name": "Penn St Station", "Latitude": 39.928653, "Longitude": -75.29202, "Sign_Up": "Victory" }, "geometry": { "type": "Point", "coordinates": [ 2657763.346136972308159, 226456.924962893128395 ] } },
{ "type": "Feature", "properties": { "FID_1": 42, "Route": "36", "Direction": "Eastbound", "Sequence": 25, "Stop_ID": 20948, "Stop_Abbre": "ELM57TNE", "Stop_Name": "Elmwood Av & 57th St", "Latitude": 39.929935, "Longitude": -75.219226, "Sign_Up": "Elmwood" }, "geometry": { "type": "Point", "coordinates": [ 2678157.227921307086945, 227500.30410972237587 ] } },
{ "type": "Feature", "properties": { "FID_1": 43, "Route": "11", "Direction": "Eastbound", "Sequence": 33, "Stop_ID": 297, "Stop_Abbre": "WOO49TNE", "Stop_Name": "Woodland Av & 49th St", "Latitude": 39.940767, "Longitude": -75.212665, "Sign_Up": "Elmwood" }, "geometry": { "type": "Point", "coordinates": [ 2679883.141136139631271, 231497.36796598136425 ] } },
{ "type": "Feature", "properties": { "FID_1": 44, "Route": "36", "Direction": "Westbound", "Sequence": 40, "Stop_ID": 20917, "Stop_Abbre": "ELM71SSW", "Stop_Name": "Elmwood Av & 71st St", "Latitude": 39.916249, "Longitude": -75.238965, "Sign_Up": "Elmwood" }, "geometry": { "type": "Point", "coordinates": [ 2672765.435555309057236, 222358.757634311914444 ] } },
{ "type": "Feature", "properties": { "FID_1": 45, "Route": "36", "Direction": "Westbound", "Sequence": 13, "Stop_ID": 20739, "Stop_Abbre": "WOO46TSW", "Stop_Name": "Woodland Av & 46th St", "Latitude": 39.944537, "Longitude": -75.209725, "Sign_Up": "Elmwood" }, "geometry": { "type": "Point", "coordinates": [ 2680667.691404297947884, 232893.839254394173622 ] } },
{ "type": "Feature", "properties": { "FID_1": 46, "Route": "13", "Direction": "Eastbound", "Sequence": 19, "Stop_ID": 20786, "Stop_Abbre": "KIN60TNE", "Stop_Name": "Kingsessing Av & 60th St", "Latitude": 39.932479, "Longitude": -75.230316, "Sign_Up": "Elmwood" }, "geometry": { "type": "Point", "coordinates": [ 2675021.879533216357231, 228337.737474232912064 ] } },
{ "type": "Feature", "properties": { "FID_1": 47, "Route": "36", "Direction": "Westbound", "Sequence": 49, "Stop_ID": 24738, "Stop_Abbre": "ISLSUFSO", "Stop_Name": "Island Av & Suffolk Av - MBFS", "Latitude": 39.899525, "Longitude": -75.239352, "Sign_Up": "Elmwood" }, "geometry": { "type": "Point", "coordinates": [ 2672830.099796056747437, 216265.88563372194767 ] } },
{ "type": "Feature", "properties": { "FID_1": 48, "Route": "13", "Direction": "Eastbound", "Sequence": 28, "Stop_ID": 20796, "Stop_Abbre": "CHE52NNE", "Stop_Name": "Chester Av & 52nd St", "Latitude": 39.941539, "Longitude": -75.220184, "Sign_Up": "Elmwood" }, "geometry": { "type": "Point", "coordinates": [ 2677767.591889560222626, 231717.999414473772049 ] } },
{ "type": "Feature", "properties": { "FID_1": 49, "Route": "36", "Direction": "Westbound", "Sequence": 47, "Stop_ID": 20922, "Stop_Abbre": "ISL76TSO", "Stop_Name": "Island Av & 76th St", "Latitude": 39.907391, "Longitude": -75.24155, "Sign_Up": "Elmwood" }, "geometry": { "type": "Point", "coordinates": [ 2672132.264905631542206, 219112.647328644990921 ] } },
{ "type": "Feature", "properties": { "FID_1": 50, "Route": "34", "Direction": "Westbound", "Sequence": 28, "Stop_ID": 20892, "Stop_Abbre": "BAL56TWE", "Stop_Name": "Baltimore Av & 56th St", "Latitude": 39.946936, "Longitude": -75.235519, "Sign_Up": "Elmwood" }, "geometry": { "type": "Point", "coordinates": [ 2673413.419495552778244, 233560.443564221262932 ] } },
{ "type": "Feature", "properties": { "FID_1": 51, "Route": "10", "Direction": "Eastbound", "Sequence": 8, "Stop_ID": 15271, "Stop_Abbre": "LAN60TEA", "Stop_Name": "Lansdowne Av & 60th St", "Latitude": 39.975851, "Longitude": -75.240378, "Sign_Up": "Callowhill" }, "geometry": { "type": "Point", "coordinates": [ 2671752.317174717783928, 244050.658804222941399 ] } },
{ "type": "Feature", "properties": { "FID_1": 52, "Route": "15", "Direction": "Eastbound", "Sequence": 2, "Stop_ID": 31443, "Stop_Abbre": "GIR62NEA", "Stop_Name": "Girard Av & 62nd St", "Latitude": 39.970063, "Longitude": -75.243216, "Sign_Up": "Callowhill" }, "geometry": { "type": "Point", "coordinates": [ 2671017.102765887975693, 241920.45571556687355 ] } },
{ "type": "Feature", "properties": { "FID_1": 53, "Route": "34", "Direction": "Eastbound", "Sequence": 7, "Stop_ID": 20890, "Stop_Abbre": "BAL54TWE", "Stop_Name": "Baltimore Av & 54th St", "Latitude": 39.947866, "Longitude": -75.231111, "Sign_Up": "Elmwood" }, "geometry": { "type": "Point", "coordinates": [ 2674639.167044058442116, 233934.304036974906921 ] } },
{ "type": "Feature", "properties": { "FID_1": 54, "Route": "36", "Direction": "Westbound", "Sequence": 25, "Stop_ID": 20902, "Stop_Abbre": "ELM56TSW", "Stop_Name": "Elmwood Av & 56th St", "Latitude": 39.931173, "Longitude": -75.217711, "Sign_Up": "Elmwood" }, "geometry": { "type": "Point", "coordinates": [ 2678569.004000633955002, 227963.277593225240707 ] } },
{ "type": "Feature", "properties": { "FID_1": 55, "Route": "34", "Direction": "Westbound", "Sequence": 29, "Stop_ID": 20893, "Stop_Abbre": "BAL57TWE", "Stop_Name": "Baltimore Av & 57th St", "Latitude": 39.946431, "Longitude": -75.237763, "Sign_Up": "Elmwood" }, "geometry": { "type": "Point", "coordinates": [ 2672789.736031636595726, 233358.651644974946976 ] } },
{ "type": "Feature", "properties": { "FID_1": 56, "Route": "10", "Direction": "Eastbound", "Sequence": 3, "Stop_ID": 20611, "Stop_Abbre": "63RLEBSO", "Stop_Name": "63rd St & Lebanon Av", "Latitude": 39.980912, "Longitude": -75.246661, "Sign_Up": "Callowhill" }, "geometry": { "type": "Point", "coordinates": [ 2669939.899867802858353, 245843.579759061336517 ] } },
{ "type": "Feature", "properties": { "FID_1": 57, "Route": "11", "Direction": "Westbound", "Sequence": 39, "Stop_ID": 20761, "Stop_Abbre": "MAIFROWE", "Stop_Name": "Main St & Front St", "Latitude": 39.916451, "Longitude": -75.248915, "Sign_Up": "Elmwood" }, "geometry": { "type": "Point", "coordinates": [ 2669973.443763971328735, 222353.120834559202194 ] } },
{ "type": "Feature", "properties": { "FID_1": 58, "Route": "10", "Direction": "Eastbound", "Sequence": 32, "Stop_ID": 20641, "Stop_Abbre": "36TPORSO", "Stop_Name": "36th St Trolley Portal Station", "Latitude": 39.955335, "Longitude": -75.194162, "Sign_Up": "Callowhill" }, "geometry": { "type": "Point", "coordinates": [ 2684915.744259893894196, 236951.597214981913567 ] } },
{ "type": "Feature", "properties": { "FID_1": 59, "Route": "13", "Direction": "Eastbound", "Sequence": 44, "Stop_ID": 20646, "Stop_Abbre": "MA19EAU", "Stop_Name": "19th St Trolley Station", "Latitude": 39.953327, "Longitude": -75.171637, "Sign_Up": "Elmwood" }, "geometry": { "type": "Point", "coordinates": [ 2691249.188942059874535, 236403.967076644301414 ] } },
{ "type": "Feature", "properties": { "FID_1": 60, "Route": "36", "Direction": "Eastbound", "Sequence": 37, "Stop_ID": 20727, "Stop_Abbre": "WOO46TNE", "Stop_Name": "Woodland Av & 46th St", "Latitude": 39.944323, "Longitude": -75.209797, "Sign_Up": "Elmwood" }, "geometry": { "type": "Point", "coordinates": [ 2680649.753776133060455, 232815.334490150213242 ] } },
{ "type": "Feature", "properties": { "FID_1": 61, "Route": "102", "Direction": "Westbound", "Sequence": 7, "Stop_ID": 15322, "Stop_Abbre": "CONSTASW", "Stop_Name": "Congress Av Station - FS", "Latitude": 39.953092, "Longitude": -75.279101, "Sign_Up": "Victory" }, "geometry": { "type": "Point", "coordinates": [ 2661136.068394139409065, 235457.222579061985016 ] } },
{ "type": "Feature", "properties": { "FID_1": 62, "Route": "15", "Direction": "Westbound", "Sequence": 22, "Stop_ID": 31289, "Stop_Abbre": "FRADELNO", "Stop_Name": "Frankford Av & Delaware Av - FS", "Latitude": 39.965205, "Longitude": -75.134342, "Sign_Up": "Callowhill" }, "geometry": { "type": "Point", "coordinates": [ 2701572.284765630960464, 241036.443704053759575 ] } },
{ "type": "Feature", "properties": { "FID_1": 63, "Route": "10", "Direction": "Westbound", "Sequence": 30, "Stop_ID": 20686, "Stop_Abbre": "LAN57TWE", "Stop_Name": "Lansdowne Av & 57th St", "Latitude": 39.976522, "Longitude": -75.235249, "Sign_Up": "Callowhill" }, "geometry": { "type": "Point", "coordinates": [ 2673182.228684976696968, 244335.878706231713295 ] } },
{ "type": "Feature", "properties": { "FID_1": 64, "Route": "102", "Direction": "Westbound", "Sequence": 16, "Stop_ID": 1959, "Stop_Abbre": "BALSTASO", "Stop_Name": "Baltimore Av Station", "Latitude": 39.931233, "Longitude": -75.292912, "Sign_Up": "Victory" }, "geometry": { "type": "Point", "coordinates": [ 2657487.131466299295425, 227389.447704136371613 ] } },
{ "type": "Feature", "properties": { "FID_1": 65, "Route": "101", "Direction": "Eastbound", "Sequence": 30, "Stop_ID": 15344, "Stop_Abbre": "CONSTANE", "Stop_Name": "Congress Av Station", "Latitude": 39.952976, "Longitude": -75.279078, "Sign_Up": "Victory" }, "geometry": { "type": "Point", "coordinates": [ 2661143.696003556251526, 235415.162623807787895 ] } },
{ "type": "Feature", "properties": { "FID_1": 66, "Route": "102", "Direction": "Westbound", "Sequence": 9, "Stop_ID": 18600, "Stop_Abbre": "DRESTASW", "Stop_Name": "Drexel Park Station", "Latitude": 39.949915, "Longitude": -75.286772, "Sign_Up": "Victory" }, "geometry": { "type": "Point", "coordinates": [ 2659018.590673714876175, 234240.277834475040436 ] } },
{ "type": "Feature", "properties": { "FID_1": 67, "Route": "36", "Direction": "Westbound", "Sequence": 20, "Stop_ID": 20897, "Stop_Abbre": "49TPASSE", "Stop_Name": "49th St & Paschall Av", "Latitude": 39.93998, "Longitude": -75.211652, "Sign_Up": "Elmwood" }, "geometry": { "type": "Point", "coordinates": [ 2680175.313123971223831, 231218.958417803049088 ] } },
{ "type": "Feature", "properties": { "FID_1": 68, "Route": "102", "Direction": "Eastbound", "Sequence": 6, "Stop_ID": 18843, "Stop_Abbre": "MAGSTANO", "Stop_Name": "Magnolia Av Station", "Latitude": 39.919419, "Longitude": -75.28675, "Sign_Up": "Victory" }, "geometry": { "type": "Point", "coordinates": [ 2659334.580855384469032, 223135.631408646702766 ] } },
{ "type": "Feature", "properties": { "FID_1": 69, "Route": "10", "Direction": "Westbound", "Sequence": 34, "Stop_ID": 20690, "Stop_Abbre": "LAN61SWE", "Stop_Name": "Lansdowne Av & 61st St", "Latitude": 39.975809, "Longitude": -75.241725, "Sign_Up": "Callowhill" }, "geometry": { "type": "Point", "coordinates": [ 2671375.394044056534767, 244024.641467809677124 ] } },
{ "type": "Feature", "properties": { "FID_1": 70, "Route": "34", "Direction": "Eastbound", "Sequence": 4, "Stop_ID": 20887, "Stop_Abbre": "BAL51TWE", "Stop_Name": "Baltimore Av & 51st St", "Latitude": 39.94783, "Longitude": -75.225266, "Sign_Up": "Elmwood" }, "geometry": { "type": "Point", "coordinates": [ 2676277.667047888040543, 233967.986056223511696 ] } },
{ "type": "Feature", "properties": { "FID_1": 71, "Route": "10", "Direction": "Eastbound", "Sequence": 4, "Stop_ID": 20612, "Stop_Abbre": "63RJEFSO", "Stop_Name": "63rd St & Jefferson St", "Latitude": 39.97835, "Longitude": -75.246184, "Sign_Up": "Callowhill" }, "geometry": { "type": "Point", "coordinates": [ 2670099.977303549647331, 244914.452680304646492 ] } },
{ "type": "Feature", "properties": { "FID_1": 72, "Route": "34", "Direction": "Westbound", "Sequence": 10, "Stop_ID": 301, "Stop_Abbre": "40TPORSW", "Stop_Name": "40th St Trolley Portal", "Latitude": 39.949595, "Longitude": -75.203333, "Sign_Up": "Elmwood" }, "geometry": { "type": "Point", "coordinates": [ 2682406.067848801612854, 234787.222934812307358 ] } },
{ "type": "Feature", "properties": { "FID_1": 73, "Route": "102", "Direction": "Eastbound", "Sequence": 21, "Stop_ID": 18630, "Stop_Abbre": "BEVSTANE", "Stop_Name": "Beverly Blvd Station", "Latitude": 39.955326, "Longitude": -75.274066, "Sign_Up": "Victory" }, "geometry": { "type": "Point", "coordinates": [ 2662524.282481223344803, 236310.238917648792267 ] } },
{ "type": "Feature", "properties": { "FID_1": 74, "Route": "36", "Direction": "Westbound", "Sequence": 50, "Stop_ID": 612, "Stop_Abbre": "EASLOOSO", "Stop_Name": "Island Av & 80th St Eastwick Loop", "Latitude": 39.898668, "Longitude": -75.239319, "Sign_Up": "Elmwood" }, "geometry": { "type": "Point", "coordinates": [ 2672848.229352965950966, 215954.085732400417328 ] } },
{ "type": "Feature", "properties": { "FID_1": 75, "Route": "15", "Direction": "Westbound", "Sequence": 21, "Stop_ID": 31347, "Stop_Abbre": "FRADELNW", "Stop_Name": "Frankford Av & Delaware Av Loop", "Latitude": 39.964945, "Longitude": -75.134154, "Sign_Up": "Callowhill" }, "geometry": { "type": "Point", "coordinates": [ 2701627.763985380530357, 240943.33266980946064 ] } },
{ "type": "Feature", "properties": { "FID_1": 76, "Route": "36", "Direction": "Eastbound", "Sequence": 28, "Stop_ID": 20951, "Stop_Abbre": "LIN54TNE", "Stop_Name": "Lindbergh Blvd & 54th St", "Latitude": 39.9334, "Longitude": -75.215532, "Sign_Up": "Elmwood" }, "geometry": { "type": "Point", "coordinates": [ 2679156.561224475502968, 228791.726723730564117 ] } },
{ "type": "Feature", "properties": { "FID_1": 77, "Route": "11", "Direction": "Westbound", "Sequence": 14, "Stop_ID": 20740, "Stop_Abbre": "WOO48TSW", "Stop_Name": "Woodland Av & 48th St", "Latitude": 39.942176, "Longitude": -75.211716, "Sign_Up": "Elmwood" }, "geometry": { "type": "Point", "coordinates": [ 2680134.384728133678436, 232018.075257897377014 ] } },
{ "type": "Feature", "properties": { "FID_1": 78, "Route": "11", "Direction": "Eastbound", "Sequence": 24, "Stop_ID": 20718, "Stop_Abbre": "WOO58TNE", "Stop_Name": "Woodland Av & 58th St", "Latitude": 39.932309, "Longitude": -75.224673, "Sign_Up": "Elmwood" }, "geometry": { "type": "Point", "coordinates": [ 2676605.520394802093506, 228321.031470894813538 ] } },
{ "type": "Feature", "properties": { "FID_1": 79, "Route": "13", "Direction": "Eastbound", "Sequence": 1, "Stop_ID": 305, "Stop_Abbre": "DARTRA1", "Stop_Name": "Darby Transportation Center - trolley", "Latitude": 39.91904, "Longitude": -75.262317, "Sign_Up": "Elmwood" }, "geometry": { "type": "Point", "coordinates": [ 2666189.053366884589195, 223189.703150898218155 ] } },
{ "type": "Feature", "properties": { "FID_1": 80, "Route": "15", "Direction": "Westbound", "Sequence": 24, "Stop_ID": 481, "Stop_Abbre": "FRAGIRNO", "Stop_Name": "Frankford Av & Girard Av", "Latitude": 39.968774, "Longitude": -75.134351, "Sign_Up": "Callowhill" }, "geometry": { "type": "Point", "coordinates": [ 2701531.261225640773773, 242335.921748146414757 ] } },
{ "type": "Feature", "properties": { "FID_1": 81, "Route": "13", "Direction": "Westbound", "Sequence": 13, "Stop_ID": 20809, "Stop_Abbre": "CHE45TSW", "Stop_Name": "Chester Av & 45th St", "Latitude": 39.947878, "Longitude": -75.211403, "Sign_Up": "Elmwood" }, "geometry": { "type": "Point", "coordinates": [ 2680162.412231132388115, 234096.874906063079834 ] } },
{ "type": "Feature", "properties": { "FID_1": 82, "Route": "15", "Direction": "Westbound", "Sequence": 59, "Stop_ID": 21035, "Stop_Abbre": "GIR54TWE", "Stop_Name": "Girard Av & 54th St", "Latitude": 39.971165, "Longitude": -75.228614, "Sign_Up": "Callowhill" }, "geometry": { "type": "Point", "coordinates": [ 2675096.687126383185387, 242438.22830206155777 ] } },
{ "type": "Feature", "properties": { "FID_1": 83, "Route": "34", "Direction": "Eastbound", "Sequence": 16, "Stop_ID": 20860, "Stop_Abbre": "BAL59TNE", "Stop_Name": "Baltimore Av & 59th St", "Latitude": 39.945197, "Longitude": -75.241899, "Sign_Up": "Elmwood" }, "geometry": { "type": "Point", "coordinates": [ 2671643.31279955804348, 232876.351100400090218 ] } },
{ "type": "Feature", "properties": { "FID_1": 84, "Route": "15", "Direction": "Westbound", "Sequence": 15, "Stop_ID": 20986, "Stop_Abbre": "GIRBERWE", "Stop_Name": "Girard Av & Berks St", "Latitude": 39.971869, "Longitude": -75.125833, "Sign_Up": "Callowhill" }, "geometry": { "type": "Point", "coordinates": [ 2703884.215181142091751, 243533.696255475282669 ] } },
{ "type": "Feature", "properties": { "FID_1": 85, "Route": "36", "Direction": "Eastbound", "Sequence": 24, "Stop_ID": 20947, "Stop_Abbre": "ELM58TNE", "Stop_Name": "Elmwood Av & 58th St", "Latitude": 39.928964, "Longitude": -75.220586, "Sign_Up": "Elmwood" }, "geometry": { "type": "Point", "coordinates": [ 2677786.103335469961166, 227135.805494889616966 ] } },
{ "type": "Feature", "properties": { "FID_1": 86, "Route": "102", "Direction": "Westbound", "Sequence": 1, "Stop_ID": 15497, "Stop_Abbre": "69THWEST", "Stop_Name": "69th St Transportation Center West Terminal", "Latitude": 39.962161, "Longitude": -75.259689, "Sign_Up": "Victory" }, "geometry": { "type": "Point", "coordinates": [ 2666482.999301299452782, 238912.43089172244072 ] } },
{ "type": "Feature", "properties": { "FID_1": 87, "Route": "10", "Direction": "Westbound", "Sequence": 23, "Stop_ID": 290, "Stop_Abbre": "LAN48TNW", "Stop_Name": "Lancaster Av & 48th St", "Latitude": 39.972244, "Longitude": -75.217035, "Sign_Up": "Callowhill" }, "geometry": { "type": "Point", "coordinates": [ 2678329.438534885644913, 242923.985204562544823 ] } },
{ "type": "Feature", "properties": { "FID_1": 88, "Route": "15", "Direction": "Westbound", "Sequence": 27, "Stop_ID": 20994, "Stop_Abbre": "GIR3RDWE", "Stop_Name": "Girard Av & 3rd St", "Latitude": 39.969799, "Longitude": -75.141386, "Sign_Up": "Callowhill" }, "geometry": { "type": "Point", "coordinates": [ 2699549.262564972043037, 242650.832207560539246 ] } },
{ "type": "Feature", "properties": { "FID_1": 89, "Route": "36", "Direction": "Westbound", "Sequence": 6, "Stop_ID": 20658, "Stop_Abbre": "33MAWEU", "Stop_Name": "33rd St Trolley Station", "Latitude": 39.95488, "Longitude": -75.189676, "Sign_Up": "Elmwood" }, "geometry": { "type": "Point", "coordinates": [ 2686177.64659172296524, 236822.342552229762077 ] } },
{ "type": "Feature", "properties": { "FID_1": 90, "Route": "36", "Direction": "Eastbound", "Sequence": 23, "Stop_ID": 20946, "Stop_Abbre": "ELM59TNE", "Stop_Name": "Elmwood Av & 59th St", "Latitude": 39.928039, "Longitude": -75.221994, "Sign_Up": "Elmwood" }, "geometry": { "type": "Point", "coordinates": [ 2677401.031599059700966, 226787.677582234144211 ] } },
{ "type": "Feature", "properties": { "FID_1": 91, "Route": "15", "Direction": "Eastbound", "Sequence": 55, "Stop_ID": 21109, "Stop_Abbre": "RICSOMNE", "Stop_Name": "Thompson St & Somerset St - detour", "Latitude": 39.979726, "Longitude": -75.112439, "Sign_Up": "Callowhill" }, "geometry": { "type": "Point", "coordinates": [ 2707551.099579632282257, 246506.403564646840096 ] } },
{ "type": "Feature", "properties": { "FID_1": 92, "Route": "11", "Direction": "Eastbound", "Sequence": 22, "Stop_ID": 20717, "Stop_Abbre": "WOO61SNE", "Stop_Name": "Woodland Av & 61st St", "Latitude": 39.929041, "Longitude": -75.229287, "Sign_Up": "Elmwood" }, "geometry": { "type": "Point", "coordinates": [ 2675346.076391384005547, 227094.080840811133385 ] } },
{ "type": "Feature", "properties": { "FID_1": 93, "Route": "34", "Direction": "Westbound", "Sequence": 7, "Stop_ID": 20733, "Stop_Abbre": "36SASOU", "Stop_Name": "36th St Trolley Station", "Latitude": 39.95389, "Longitude": -75.194722, "Sign_Up": "Elmwood" }, "geometry": { "type": "Point", "coordinates": [ 2684774.046052470803261, 236420.887646481394768 ] } },
{ "type": "Feature", "properties": { "FID_1": 94, "Route": "11", "Direction": "Westbound", "Sequence": 15, "Stop_ID": 302, "Stop_Abbre": "WOO49TSW", "Stop_Name": "Woodland Av & 49th St", "Latitude": 39.940955, "Longitude": -75.212582, "Sign_Up": "Elmwood" }, "geometry": { "type": "Point", "coordinates": [ 2679904.437681466341019, 231566.493483886122704 ] } },
{ "type": "Feature", "properties": { "FID_1": 95, "Route": "13", "Direction": "Eastbound", "Sequence": 2, "Stop_ID": 20768, "Stop_Abbre": "9THRIDNE", "Stop_Name": "9th St & Ridge Av", "Latitude": 39.919921, "Longitude": -75.260545, "Sign_Up": "Elmwood" }, "geometry": { "type": "Point", "coordinates": [ 2666676.846026465296745, 223524.512192562222481 ] } },
{ "type": "Feature", "properties": { "FID_1": 96, "Route": "11", "Direction": "Westbound", "Sequence": 20, "Stop_ID": 20744, "Stop_Abbre": "WOO54TSW", "Stop_Name": "Woodland Av & 54th St", "Latitude": 39.936485, "Longitude": -75.218947, "Sign_Up": "Elmwood" }, "geometry": { "type": "Point", "coordinates": [ 2678167.065171971917152, 229887.612327232956886 ] } },
{ "type": "Feature", "properties": { "FID_1": 97, "Route": "102", "Direction": "Westbound", "Sequence": 20, "Stop_ID": 12048, "Stop_Abbre": "PRRSTASE", "Stop_Name": "Providence Rd Station", "Latitude": 39.921643, "Longitude": -75.288705, "Sign_Up": "Victory" }, "geometry": { "type": "Point", "coordinates": [ 2658763.853978469967842, 223930.192155480384827 ] } },
{ "type": "Feature", "properties": { "FID_1": 98, "Route": "102", "Direction": "Westbound", "Sequence": 23, "Stop_ID": 4726, "Stop_Abbre": "BARSTASE", "Stop_Name": "Bartram Av Station", "Latitude": 39.914605, "Longitude": -75.284222, "Sign_Up": "Victory" }, "geometry": { "type": "Point", "coordinates": [ 2660092.348040640354156, 221402.448523312807083 ] } },
{ "type": "Feature", "properties": { "FID_1": 99, "Route": "10", "Direction": "Eastbound", "Sequence": 20, "Stop_ID": 20628, "Stop_Abbre": "LAN47TSE", "Stop_Name": "Lancaster Av & 47th St", "Latitude": 39.971555, "Longitude": -75.216115, "Sign_Up": "Callowhill" }, "geometry": { "type": "Point", "coordinates": [ 2678594.385839641094208, 242680.494221732020378 ] } },
{ "type": "Feature", "properties": { "FID_1": 100, "Route": "13", "Direction": "Westbound", "Sequence": 47, "Stop_ID": 30866, "Stop_Abbre": "10TMAISW", "Stop_Name": "10th St & Main St", "Latitude": 39.920121, "Longitude": -75.263141, "Sign_Up": "Elmwood" }, "geometry": { "type": "Point", "coordinates": [ 2665946.930163472890854, 223576.826720476150513 ] } },
{ "type": "Feature", "properties": { "FID_1": 101, "Route": "101", "Direction": "Eastbound", "Sequence": 5, "Stop_ID": 15380, "Stop_Abbre": "MONSTAEA", "Stop_Name": "Monroe St Station", "Latitude": 39.917592, "Longitude": -75.387766, "Sign_Up": "Victory" }, "geometry": { "type": "Point", "coordinates": [ 2631028.714566975831985, 221696.307515636086464 ] } },
{ "type": "Feature", "properties": { "FID_1": 102, "Route": "15", "Direction": "Westbound", "Sequence": 19, "Stop_ID": 24038, "Stop_Abbre": "FRARICSO", "Stop_Name": "Frankford Av & Richmond St", "Latitude": 39.966124, "Longitude": -75.134492, "Sign_Up": "Callowhill" }, "geometry": { "type": "Point", "coordinates": [ 2701520.344252720475197, 241369.827223643660545 ] } },
{ "type": "Feature", "properties": { "FID_1": 103, "Route": "10", "Direction": "Westbound", "Sequence": 24, "Stop_ID": 20678, "Stop_Abbre": "LAN49TNW", "Stop_Name": "Lancaster Av & 49th St", "Latitude": 39.973703, "Longitude": -75.219464, "Sign_Up": "Callowhill" }, "geometry": { "type": "Point", "coordinates": [ 2677633.70370589196682, 243435.740414649248123 ] } },
{ "type": "Feature", "properties": { "FID_1": 104, "Route": "13", "Direction": "Eastbound", "Sequence": 20, "Stop_ID": 20787, "Stop_Abbre": "60TCHENW", "Stop_Name": "60th St & Chester Av", "Latitude": 39.933632, "Longitude": -75.231399, "Sign_Up": "Elmwood" }, "geometry": { "type": "Point", "coordinates": [ 2674706.310938641428947, 228748.921363145112991 ] } },
{ "type": "Feature", "properties": { "FID_1": 105, "Route": "10", "Direction": "Eastbound", "Sequence": 29, "Stop_ID": 20638, "Stop_Abbre": "LAN38TSE", "Stop_Name": "Lancaster Av & 38th St", "Latitude": 39.960267, "Longitude": -75.197016, "Sign_Up": "Callowhill" }, "geometry": { "type": "Point", "coordinates": [ 2684064.044191643595695, 238724.34563797712326 ] } },
{ "type": "Feature", "properties": { "FID_1": 106, "Route": "36", "Direction": "Eastbound", "Sequence": 44, "Stop_ID": 20642, "Stop_Abbre": "33MAEAU", "Stop_Name": "33rd St Trolley Station", "Latitude": 39.954773, "Longitude": -75.1897, "Sign_Up": "Elmwood" }, "geometry": { "type": "Point", "coordinates": [ 2686172.051130473613739, 236783.185806393623352 ] } },
{ "type": "Feature", "properties": { "FID_1": 107, "Route": "15", "Direction": "Eastbound", "Sequence": 54, "Stop_ID": 21108, "Stop_Abbre": "RICLEHNE", "Stop_Name": "Thompson St & Lehigh Avt - detour", "Latitude": 39.978473, "Longitude": -75.114842, "Sign_Up": "Callowhill" }, "geometry": { "type": "Point", "coordinates": [ 2706891.591712310910225, 246030.060357227921486 ] } },
{ "type": "Feature", "properties": { "FID_1": 108, "Route": "10", "Direction": "Eastbound", "Sequence": 7, "Stop_ID": 20615, "Stop_Abbre": "LAN61SEA", "Stop_Name": "Lansdowne Av & 61st St", "Latitude": 39.975693, "Longitude": -75.241879, "Sign_Up": "Callowhill" }, "geometry": { "type": "Point", "coordinates": [ 2671333.451214551925659, 243981.176003560423851 ] } },
{ "type": "Feature", "properties": { "FID_1": 109, "Route": "13", "Direction": "Westbound", "Sequence": 5, "Stop_ID": 20662, "Stop_Abbre": "MA30WEU", "Stop_Name": "30th St Trolley Station", "Latitude": 39.954894, "Longitude": -75.183169, "Sign_Up": "Elmwood" }, "geometry": { "type": "Point", "coordinates": [ 2688000.943470060825348, 236880.387711733579636 ] } },
{ "type": "Feature", "properties": { "FID_1": 110, "Route": "15", "Direction": "Eastbound", "Sequence": 49, "Stop_ID": 21101, "Stop_Abbre": "GIRPALNE", "Stop_Name": "Girard Av & Palmer St", "Latitude": 39.97084, "Longitude": -75.128519, "Sign_Up": "Callowhill" }, "geometry": { "type": "Point", "coordinates": [ 2703142.850850224494934, 243136.659647971391678 ] } },
{ "type": "Feature", "properties": { "FID_1": 111, "Route": "101", "Direction": "Westbound", "Sequence": 7, "Stop_ID": 15322, "Stop_Abbre": "CONSTASW", "Stop_Name": "Congress Av Station - FS", "Latitude": 39.953092, "Longitude": -75.279101, "Sign_Up": "Victory" }, "geometry": { "type": "Point", "coordinates": [ 2661136.068394139409065, 235457.222579061985016 ] } },
{ "type": "Feature", "properties": { "FID_1": 112, "Route": "11", "Direction": "Westbound", "Sequence": 16, "Stop_ID": 317, "Stop_Abbre": "WOO50TSW", "Stop_Name": "Woodland Av & 50th St", "Latitude": 39.940064, "Longitude": -75.213848, "Sign_Up": "Elmwood" }, "geometry": { "type": "Point", "coordinates": [ 2679558.912781968712807, 231231.856029808521271 ] } },
{ "type": "Feature", "properties": { "FID_1": 113, "Route": "102", "Direction": "Eastbound", "Sequence": 5, "Stop_ID": 1964, "Stop_Abbre": "NORSTANO", "Stop_Name": "North St Station - MBFS", "Latitude": 39.917596, "Longitude": -75.285408, "Sign_Up": "Victory" }, "geometry": { "type": "Point", "coordinates": [ 2659729.386168137192726, 222482.305287480354309 ] } },
{ "type": "Feature", "properties": { "FID_1": 114, "Route": "102", "Direction": "Eastbound", "Sequence": 7, "Stop_ID": 18844, "Stop_Abbre": "PROSTANO", "Stop_Name": "Providence Rd Station - FS", "Latitude": 39.921777, "Longitude": -75.288575, "Sign_Up": "Victory" }, "geometry": { "type": "Point", "coordinates": [ 2658798.94216288626194, 223980.003079473972321 ] } },
{ "type": "Feature", "properties": { "FID_1": 115, "Route": "13", "Direction": "Westbound", "Sequence": 38, "Stop_ID": 20833, "Stop_Abbre": "CHEDUNSW", "Stop_Name": "Chester Av & Duncan Av", "Latitude": 39.92576, "Longitude": -75.249045, "Sign_Up": "Elmwood" }, "geometry": { "type": "Point", "coordinates": [ 2669840.970603719353676, 225741.827639803290367 ] } },
{ "type": "Feature", "properties": { "FID_1": 116, "Route": "102", "Direction": "Westbound", "Sequence": 10, "Stop_ID": 18601, "Stop_Abbre": "IRVSTASW", "Stop_Name": "Irvington Rd Station", "Latitude": 39.948864, "Longitude": -75.288982, "Sign_Up": "Victory" }, "geometry": { "type": "Point", "coordinates": [ 2658409.888807132840157, 233840.293398231267929 ] } },
{ "type": "Feature", "properties": { "FID_1": 117, "Route": "11", "Direction": "Eastbound", "Sequence": 32, "Stop_ID": 20725, "Stop_Abbre": "WOO50TNE", "Stop_Name": "Woodland Av & 50th St", "Latitude": 39.939886, "Longitude": -75.213907, "Sign_Up": "Elmwood" }, "geometry": { "type": "Point", "coordinates": [ 2679544.237614467740059, 231166.565806061029434 ] } },
{ "type": "Feature", "properties": { "FID_1": 118, "Route": "13", "Direction": "Eastbound", "Sequence": 46, "Stop_ID": 283, "Stop_Abbre": "JUNSTANO", "Stop_Name": "13th St Trolley Station", "Latitude": 39.952532, "Longitude": -75.162559, "Sign_Up": "Elmwood" }, "geometry": { "type": "Point", "coordinates": [ 2693801.626750558614731, 236188.913044810295105 ] } },
{ "type": "Feature", "properties": { "FID_1": 119, "Route": "34", "Direction": "Eastbound", "Sequence": 24, "Stop_ID": 20868, "Stop_Abbre": "BAL51SEA", "Stop_Name": "Baltimore Av & 51st St", "Latitude": 39.947715, "Longitude": -75.225456, "Sign_Up": "Elmwood" }, "geometry": { "type": "Point", "coordinates": [ 2676225.614986643195152, 233924.58784906566143 ] } },
{ "type": "Feature", "properties": { "FID_1": 120, "Route": "34", "Direction": "Westbound", "Sequence": 15, "Stop_ID": 20881, "Stop_Abbre": "BAL44TWE", "Stop_Name": "Baltimore Av & 44th St", "Latitude": 39.949332, "Longitude": -75.211092, "Sign_Up": "Elmwood" }, "geometry": { "type": "Point", "coordinates": [ 2680234.347126632928848, 234628.828566566109657 ] } },
{ "type": "Feature", "properties": { "FID_1": 121, "Route": "10", "Direction": "Eastbound", "Sequence": 31, "Stop_ID": 20640, "Stop_Abbre": "36TMARSO", "Stop_Name": "36th St & Market St", "Latitude": 39.956281, "Longitude": -75.194218, "Sign_Up": "Callowhill" }, "geometry": { "type": "Point", "coordinates": [ 2684890.07961305975914, 237295.609322220087051 ] } },
{ "type": "Feature", "properties": { "FID_1": 122, "Route": "101", "Direction": "Eastbound", "Sequence": 2, "Stop_ID": 18615, "Stop_Abbre": "VETSTAEA", "Stop_Name": "Veterans Square Station", "Latitude": 39.918209, "Longitude": -75.392145, "Sign_Up": "Victory" }, "geometry": { "type": "Point", "coordinates": [ 2629794.842690885066986, 221888.167696222662926 ] } },
{ "type": "Feature", "properties": { "FID_1": 123, "Route": "11", "Direction": "Westbound", "Sequence": 29, "Stop_ID": 20752, "Stop_Abbre": "WOO64TSW", "Stop_Name": "Woodland Av & 64th St", "Latitude": 39.926557, "Longitude": -75.233047, "Sign_Up": "Elmwood" }, "geometry": { "type": "Point", "coordinates": [ 2674317.788749799132347, 226159.499704733490944 ] } },
{ "type": "Feature", "properties": { "FID_1": 124, "Route": "15", "Direction": "Eastbound", "Sequence": 45, "Stop_ID": 31347, "Stop_Abbre": "FRADELNW", "Stop_Name": "Frankford Av & Delaware Av Loop", "Latitude": 39.964945, "Longitude": -75.134154, "Sign_Up": "Callowhill" }, "geometry": { "type": "Point", "coordinates": [ 2701627.763985380530357, 240943.33266980946064 ] } },
{ "type": "Feature", "properties": { "FID_1": 125, "Route": "11", "Direction": "Eastbound", "Sequence": 12, "Stop_ID": 20706, "Stop_Abbre": "WOO71SNE", "Stop_Name": "Woodland Av & 71st St", "Latitude": 39.919361, "Longitude": -75.243077, "Sign_Up": "Elmwood" }, "geometry": { "type": "Point", "coordinates": [ 2671580.284710392355919, 223459.180302232503891 ] } },
{ "type": "Feature", "properties": { "FID_1": 126, "Route": "13", "Direction": "Westbound", "Sequence": 31, "Stop_ID": 324, "Stop_Abbre": "KINCEMSW", "Stop_Name": "Kingsessing Av & Cemetery Av - Mt Moriah Loop", "Latitude": 39.929069, "Longitude": -75.235413, "Sign_Up": "Elmwood" }, "geometry": { "type": "Point", "coordinates": [ 2673628.429564222693443, 227055.303687393665314 ] } },
{ "type": "Feature", "properties": { "FID_1": 127, "Route": "15", "Direction": "Westbound", "Sequence": 35, "Stop_ID": 21005, "Stop_Abbre": "GIR16TWE", "Stop_Name": "Girard Av & 16th St", "Latitude": 39.971908, "Longitude": -75.162605, "Sign_Up": "Callowhill" }, "geometry": { "type": "Point", "coordinates": [ 2693581.96675680577755, 243243.835286647081375 ] } },
{ "type": "Feature", "properties": { "FID_1": 128, "Route": "10", "Direction": "Westbound", "Sequence": 13, "Stop_ID": 20668, "Stop_Abbre": "LANSPRNW", "Stop_Name": "Lancaster Av & Spring Garden St", "Latitude": 39.961923, "Longitude": -75.199952, "Sign_Up": "Callowhill" }, "geometry": { "type": "Point", "coordinates": [ 2683223.93924455344677, 239303.569545149803162 ] } },
{ "type": "Feature", "properties": { "FID_1": 129, "Route": "13", "Direction": "Eastbound", "Sequence": 18, "Stop_ID": 20784, "Stop_Abbre": "KIN61SNE", "Stop_Name": "Kingsessing Av & 61st St", "Latitude": 39.931045, "Longitude": -75.232386, "Sign_Up": "Elmwood" }, "geometry": { "type": "Point", "coordinates": [ 2674456.497461885213852, 227799.01578263938427 ] } },
{ "type": "Feature", "properties": { "FID_1": 130, "Route": "13", "Direction": "Westbound", "Sequence": 3, "Stop_ID": 20660, "Stop_Abbre": "MA19WEU", "Stop_Name": "19th St Trolley Station", "Latitude": 39.953425, "Longitude": -75.171483, "Sign_Up": "Elmwood" }, "geometry": { "type": "Point", "coordinates": [ 2691291.302702963352203, 236440.911884650588036 ] } },
{ "type": "Feature", "properties": { "FID_1": 131, "Route": "13", "Direction": "Eastbound", "Sequence": 35, "Stop_ID": 20801, "Stop_Abbre": "CHE43REA", "Stop_Name": "Chester Av & 43rd St", "Latitude": 39.948356, "Longitude": -75.209135, "Sign_Up": "Elmwood" }, "geometry": { "type": "Point", "coordinates": [ 2680793.031048640608788, 234289.214744478464127 ] } },
{ "type": "Feature", "properties": { "FID_1": 132, "Route": "15", "Direction": "Westbound", "Sequence": 39, "Stop_ID": 21009, "Stop_Abbre": "GIR20TWE", "Stop_Name": "Girard Av & 20th St", "Latitude": 39.972715, "Longitude": -75.168874, "Sign_Up": "Callowhill" }, "geometry": { "type": "Point", "coordinates": [ 2691817.077241972088814, 243486.276074722409248 ] } },
{ "type": "Feature", "properties": { "FID_1": 133, "Route": "11", "Direction": "Westbound", "Sequence": 8, "Stop_ID": 20734, "Stop_Abbre": "SP37SWU", "Stop_Name": "37th St Trolley Station", "Latitude": 39.951048, "Longitude": -75.197306, "Sign_Up": "Elmwood" }, "geometry": { "type": "Point", "coordinates": [ 2684079.845013052225113, 235365.082999557256699 ] } },
{ "type": "Feature", "properties": { "FID_1": 134, "Route": "102", "Direction": "Eastbound", "Sequence": 1, "Stop_ID": 20431, "Stop_Abbre": "SHASTA", "Stop_Name": "Sharon Hill Station", "Latitude": 39.906673, "Longitude": -75.278314, "Sign_Up": "Victory" }, "geometry": { "type": "Point", "coordinates": [ 2661829.829473808407784, 218560.419758558273315 ] } },
{ "type": "Feature", "properties": { "FID_1": 135, "Route": "101", "Direction": "Eastbound", "Sequence": 25, "Stop_ID": 15376, "Stop_Abbre": "HUESTASE", "Stop_Name": "Huey Av Station", "Latitude": 39.94741, "Longitude": -75.297688, "Sign_Up": "Victory" }, "geometry": { "type": "Point", "coordinates": [ 2655984.628237724304199, 233242.938621804118156 ] } },
{ "type": "Feature", "properties": { "FID_1": 136, "Route": "15", "Direction": "Westbound", "Sequence": 43, "Stop_ID": 21016, "Stop_Abbre": "GIR26TWE", "Stop_Name": "Girard Av & 26th St", "Latitude": 39.973976, "Longitude": -75.178733, "Sign_Up": "Callowhill" }, "geometry": { "type": "Point", "coordinates": [ 2689041.670719310641289, 243864.845199480652809 ] } },
{ "type": "Feature", "properties": { "FID_1": 137, "Route": "11", "Direction": "Eastbound", "Sequence": 5, "Stop_ID": 20699, "Stop_Abbre": "MAI5THEA", "Stop_Name": "Main St & 5th St", "Latitude": 39.917504, "Longitude": -75.254613, "Sign_Up": "Elmwood" }, "geometry": { "type": "Point", "coordinates": [ 2668364.928936392068863, 222691.347848400473595 ] } },
{ "type": "Feature", "properties": { "FID_1": 138, "Route": "34", "Direction": "Westbound", "Sequence": 40, "Stop_ID": 20865, "Stop_Abbre": "BAL54TEA", "Stop_Name": "Baltimore Av & 54th St", "Latitude": 39.947742, "Longitude": -75.231466, "Sign_Up": "Elmwood" }, "geometry": { "type": "Point", "coordinates": [ 2674540.962187975645065, 233886.312991231679916 ] } },
{ "type": "Feature", "properties": { "FID_1": 139, "Route": "13", "Direction": "Eastbound", "Sequence": 42, "Stop_ID": 20643, "Stop_Abbre": "MA30EAU", "Stop_Name": "30th St Trolley Station", "Latitude": 39.954815, "Longitude": -75.1835, "Sign_Up": "Elmwood" }, "geometry": { "type": "Point", "coordinates": [ 2687909.024362549185753, 236848.925176233053207 ] } },
{ "type": "Feature", "properties": { "FID_1": 140, "Route": "10", "Direction": "Westbound", "Sequence": 17, "Stop_ID": 20671, "Stop_Abbre": "LAN41SNW", "Stop_Name": "Lancaster Av & 41st St", "Latitude": 39.965102, "Longitude": -75.205386, "Sign_Up": "Callowhill" }, "geometry": { "type": "Point", "coordinates": [ 2681667.965322390198708, 240417.20970630645752 ] } },
{ "type": "Feature", "properties": { "FID_1": 141, "Route": "11", "Direction": "Westbound", "Sequence": 2, "Stop_ID": 20659, "Stop_Abbre": "MA15WEU", "Stop_Name": "15th St Trolley Station", "Latitude": 39.952672, "Longitude": -75.165345, "Sign_Up": "Elmwood" }, "geometry": { "type": "Point", "coordinates": [ 2693019.397343888878822, 236217.021584391593933 ] } },
{ "type": "Feature", "properties": { "FID_1": 142, "Route": "11", "Direction": "Eastbound", "Sequence": 21, "Stop_ID": 20715, "Stop_Abbre": "WOO62NNE", "Stop_Name": "Woodland Av & 62nd St", "Latitude": 39.928017, "Longitude": -75.230765, "Sign_Up": "Elmwood" }, "geometry": { "type": "Point", "coordinates": [ 2674942.375427141785622, 226709.381478980183601 ] } },
{ "type": "Feature", "properties": { "FID_1": 143, "Route": "101", "Direction": "Eastbound", "Sequence": 36, "Stop_ID": 15497, "Stop_Abbre": "69THWEST", "Stop_Name": "69th St Transportation Center West Terminal", "Latitude": 39.962161, "Longitude": -75.259689, "Sign_Up": "Victory" }, "geometry": { "type": "Point", "coordinates": [ 2666482.999301299452782, 238912.43089172244072 ] } },
{ "type": "Feature", "properties": { "FID_1": 144, "Route": "11", "Direction": "Eastbound", "Sequence": 44, "Stop_ID": 20643, "Stop_Abbre": "MA30EAU", "Stop_Name": "30th St Trolley Station", "Latitude": 39.954815, "Longitude": -75.1835, "Sign_Up": "Elmwood" }, "geometry": { "type": "Point", "coordinates": [ 2687909.024362549185753, 236848.925176233053207 ] } },
{ "type": "Feature", "properties": { "FID_1": 145, "Route": "36", "Direction": "Eastbound", "Sequence": 14, "Stop_ID": 20937, "Stop_Abbre": "ELM68TNE", "Stop_Name": "Elmwood Av & 68th St", "Latitude": 39.91925, "Longitude": -75.234425, "Sign_Up": "Elmwood" }, "geometry": { "type": "Point", "coordinates": [ 2674007.279528304934502, 223487.761937975883484 ] } },
{ "type": "Feature", "properties": { "FID_1": 146, "Route": "36", "Direction": "Eastbound", "Sequence": 32, "Stop_ID": 21201, "Stop_Abbre": "GRA49TNE", "Stop_Name": "Grays Av & 49th St", "Latitude": 39.938559, "Longitude": -75.210239, "Sign_Up": "Elmwood" }, "geometry": { "type": "Point", "coordinates": [ 2680586.250294223427773, 230712.918091312050819 ] } },
{ "type": "Feature", "properties": { "FID_1": 147, "Route": "34", "Direction": "Eastbound", "Sequence": 23, "Stop_ID": 20867, "Stop_Abbre": "BALBROEA", "Stop_Name": "Baltimore Av & Broomall St", "Latitude": 39.947727, "Longitude": -75.227912, "Sign_Up": "Elmwood" }, "geometry": { "type": "Point", "coordinates": [ 2675537.168200805783272, 233909.284730061888695 ] } },
{ "type": "Feature", "properties": { "FID_1": 148, "Route": "34", "Direction": "Westbound", "Sequence": 26, "Stop_ID": 20890, "Stop_Abbre": "BAL54TWE", "Stop_Name": "Baltimore Av & 54th St", "Latitude": 39.947866, "Longitude": -75.231111, "Sign_Up": "Elmwood" }, "geometry": { "type": "Point", "coordinates": [ 2674639.167044058442116, 233934.304036974906921 ] } },
{ "type": "Feature", "properties": { "FID_1": 149, "Route": "10", "Direction": "Eastbound", "Sequence": 35, "Stop_ID": 20643, "Stop_Abbre": "MA30EAU", "Stop_Name": "30th St Trolley Station", "Latitude": 39.954815, "Longitude": -75.1835, "Sign_Up": "Callowhill" }, "geometry": { "type": "Point", "coordinates": [ 2687909.024362549185753, 236848.925176233053207 ] } },
{ "type": "Feature", "properties": { "FID_1": 150, "Route": "13", "Direction": "Westbound", "Sequence": 23, "Stop_ID": 20819, "Stop_Abbre": "CHE56TSW", "Stop_Name": "Chester Av & 56th St", "Latitude": 39.937871, "Longitude": -75.225625, "Sign_Up": "Elmwood" }, "geometry": { "type": "Point", "coordinates": [ 2676280.742172971367836, 230338.707553640007973 ] } },
{ "type": "Feature", "properties": { "FID_1": 151, "Route": "13", "Direction": "Westbound", "Sequence": 39, "Stop_ID": 20834, "Stop_Abbre": "CHESTESW", "Stop_Name": "Chester Av & Stetser Av", "Latitude": 39.925245, "Longitude": -75.250699, "Sign_Up": "Elmwood" }, "geometry": { "type": "Point", "coordinates": [ 2669382.573554635047913, 225541.166623815894127 ] } },
{ "type": "Feature", "properties": { "FID_1": 152, "Route": "102", "Direction": "Eastbound", "Sequence": 3, "Stop_ID": 15334, "Stop_Abbre": "ANDAVNO", "Stop_Name": "Andrews Av Station - FS", "Latitude": 39.911684, "Longitude": -75.281832, "Sign_Up": "Victory" }, "geometry": { "type": "Point", "coordinates": [ 2660792.246575221419334, 220357.522791638970375 ] } },
{ "type": "Feature", "properties": { "FID_1": 153, "Route": "34", "Direction": "Eastbound", "Sequence": 44, "Stop_ID": 20646, "Stop_Abbre": "MA19EAU", "Stop_Name": "19th St Trolley Station", "Latitude": 39.953327, "Longitude": -75.171637, "Sign_Up": "Elmwood" }, "geometry": { "type": "Point", "coordinates": [ 2691249.188942059874535, 236403.967076644301414 ] } },
{ "type": "Feature", "properties": { "FID_1": 154, "Route": "11", "Direction": "Westbound", "Sequence": 11, "Stop_ID": 20736, "Stop_Abbre": "WOO42NSW", "Stop_Name": "Woodland Av & 42nd St", "Latitude": 39.946987, "Longitude": -75.206907, "Sign_Up": "Elmwood" }, "geometry": { "type": "Point", "coordinates": [ 2681431.802736967802048, 233808.697660893201828 ] } },
{ "type": "Feature", "properties": { "FID_1": 155, "Route": "15", "Direction": "Eastbound", "Sequence": 53, "Stop_ID": 21107, "Stop_Abbre": "RICHUNNE", "Stop_Name": "Thompson St & Huntingdon St - detour", "Latitude": 39.977567, "Longitude": -75.116595, "Sign_Up": "Callowhill" }, "geometry": { "type": "Point", "coordinates": [ 2706410.373842716217041, 245685.515114560723305 ] } },
{ "type": "Feature", "properties": { "FID_1": 156, "Route": "15", "Direction": "Eastbound", "Sequence": 27, "Stop_ID": 21078, "Stop_Abbre": "GIRCOREA", "Stop_Name": "Girard Av & Corinthian Av", "Latitude": 39.972817, "Longitude": -75.170421, "Sign_Up": "Callowhill" }, "geometry": { "type": "Point", "coordinates": [ 2691382.594843223690987, 243510.750107139348984 ] } },
{ "type": "Feature", "properties": { "FID_1": 157, "Route": "15", "Direction": "Eastbound", "Sequence": 12, "Stop_ID": 30605, "Stop_Abbre": "GIRMEREA", "Stop_Name": "Girard Av & Merion Av", "Latitude": 39.972725, "Longitude": -75.216431, "Sign_Up": "Callowhill" }, "geometry": { "type": "Point", "coordinates": [ 2678493.628823310136795, 243103.988453477621078 ] } },
{ "type": "Feature", "properties": { "FID_1": 158, "Route": "36", "Direction": "Westbound", "Sequence": 11, "Stop_ID": 20736, "Stop_Abbre": "WOO42NSW", "Stop_Name": "Woodland Av & 42nd St", "Latitude": 39.946987, "Longitude": -75.206907, "Sign_Up": "Elmwood" }, "geometry": { "type": "Point", "coordinates": [ 2681431.802736967802048, 233808.697660893201828 ] } },
{ "type": "Feature", "properties": { "FID_1": 159, "Route": "15", "Direction": "Westbound", "Sequence": 14, "Stop_ID": 17788, "Stop_Abbre": "ARANOTSW", "Stop_Name": "Aramingo Av & Norris St", "Latitude": 39.974093, "Longitude": -75.122682, "Sign_Up": "Callowhill" }, "geometry": { "type": "Point", "coordinates": [ 2704742.876193463802338, 244369.755935057997704 ] } },
{ "type": "Feature", "properties": { "FID_1": 160, "Route": "34", "Direction": "Eastbound", "Sequence": 1, "Stop_ID": 20957, "Stop_Abbre": "49TWOONW", "Stop_Name": "49th St & Woodland Av", "Latitude": 39.940794, "Longitude": -75.212429, "Sign_Up": "Elmwood" }, "geometry": { "type": "Point", "coordinates": [ 2679949.006818056106567, 231509.100882142782211 ] } },
{ "type": "Feature", "properties": { "FID_1": 161, "Route": "101", "Direction": "Eastbound", "Sequence": 10, "Stop_ID": 15366, "Stop_Abbre": "PINSTAEA", "Stop_Name": "Pine Ridge Station", "Latitude": 39.914872, "Longitude": -75.369922, "Sign_Up": "Victory" }, "geometry": { "type": "Point", "coordinates": [ 2636058.85608147084713, 220840.195382729172707 ] } },
{ "type": "Feature", "properties": { "FID_1": 162, "Route": "11", "Direction": "Eastbound", "Sequence": 4, "Stop_ID": 20698, "Stop_Abbre": "MAI6THEA", "Stop_Name": "Main St & 6th St", "Latitude": 39.917791, "Longitude": -75.255852, "Sign_Up": "Elmwood" }, "geometry": { "type": "Point", "coordinates": [ 2668014.575306385755539, 222786.038603886961937 ] } },
{ "type": "Feature", "properties": { "FID_1": 163, "Route": "15", "Direction": "Eastbound", "Sequence": 35, "Stop_ID": 21087, "Stop_Abbre": "GIR11TEA", "Stop_Name": "Girard Av & 11th St", "Latitude": 39.970756, "Longitude": -75.154222, "Sign_Up": "Callowhill" }, "geometry": { "type": "Point", "coordinates": [ 2695942.842940554022789, 242893.303835481405258 ] } },
{ "type": "Feature", "properties": { "FID_1": 164, "Route": "102", "Direction": "Westbound", "Sequence": 17, "Stop_ID": 15329, "Stop_Abbre": "PENSTASO", "Stop_Name": "Penn St Station", "Latitude": 39.928938, "Longitude": -75.292008, "Sign_Up": "Victory" }, "geometry": { "type": "Point", "coordinates": [ 2657763.820873558521271, 226560.798770889639854 ] } },
{ "type": "Feature", "properties": { "FID_1": 165, "Route": "11", "Direction": "Westbound", "Sequence": 34, "Stop_ID": 20757, "Stop_Abbre": "WOO69TSW", "Stop_Name": "Woodland Av & 69th St", "Latitude": 39.921641, "Longitude": -75.240037, "Sign_Up": "Elmwood" }, "geometry": { "type": "Point", "coordinates": [ 2672409.036005631089211, 224313.624459475278854 ] } },
{ "type": "Feature", "properties": { "FID_1": 166, "Route": "101", "Direction": "Eastbound", "Sequence": 28, "Stop_ID": 18629, "Stop_Abbre": "DRESTANE", "Stop_Name": "Drexel Park Station", "Latitude": 39.949709, "Longitude": -75.286949, "Sign_Up": "Victory" }, "geometry": { "type": "Point", "coordinates": [ 2658971.077645391225815, 234163.881005644798279 ] } },
{ "type": "Feature", "properties": { "FID_1": 167, "Route": "36", "Direction": "Westbound", "Sequence": 3, "Stop_ID": 20660, "Stop_Abbre": "MA19WEU", "Stop_Name": "19th St Trolley Station", "Latitude": 39.953425, "Longitude": -75.171483, "Sign_Up": "Elmwood" }, "geometry": { "type": "Point", "coordinates": [ 2691291.302702963352203, 236440.911884650588036 ] } },
{ "type": "Feature", "properties": { "FID_1": 168, "Route": "11", "Direction": "Eastbound", "Sequence": 29, "Stop_ID": 21208, "Stop_Abbre": "WOO53RNE", "Stop_Name": "Woodland Av & 53rd St", "Latitude": 39.937242, "Longitude": -75.217681, "Sign_Up": "Elmwood" }, "geometry": { "type": "Point", "coordinates": [ 2678514.027404546737671, 230173.436558723449707 ] } },
{ "type": "Feature", "properties": { "FID_1": 169, "Route": "34", "Direction": "Eastbound", "Sequence": 11, "Stop_ID": 20894, "Stop_Abbre": "BAL58TWE", "Stop_Name": "Baltimore Av & 58th St", "Latitude": 39.945988, "Longitude": -75.239937, "Sign_Up": "Elmwood" }, "geometry": { "type": "Point", "coordinates": [ 2672185.019721388816833, 233180.009613811969757 ] } },
{ "type": "Feature", "properties": { "FID_1": 170, "Route": "34", "Direction": "Eastbound", "Sequence": 13, "Stop_ID": 20896, "Stop_Abbre": "BAL60TWE", "Stop_Name": "Baltimore Av & 60th St", "Latitude": 39.944468, "Longitude": -75.244322, "Sign_Up": "Elmwood" }, "geometry": { "type": "Point", "coordinates": [ 2670971.744260802865028, 232591.61380897462368 ] } },
{ "type": "Feature", "properties": { "FID_1": 171, "Route": "15", "Direction": "Westbound", "Sequence": 41, "Stop_ID": 30791, "Stop_Abbre": "GIR24HSW", "Stop_Name": "Girard Av & 24th St", "Latitude": 39.972453, "Longitude": -75.175844, "Sign_Up": "Callowhill" }, "geometry": { "type": "Point", "coordinates": [ 2689867.189409464597702, 243333.863977983593941 ] } },
{ "type": "Feature", "properties": { "FID_1": 172, "Route": "101", "Direction": "Eastbound", "Sequence": 15, "Stop_ID": 1952, "Stop_Abbre": "WOOSTANE", "Stop_Name": "Woodland Av Station - FS", "Latitude": 39.924644, "Longitude": -75.339624, "Sign_Up": "Victory" }, "geometry": { "type": "Point", "coordinates": [ 2644457.515793308615685, 224629.115298315882683 ] } },
{ "type": "Feature", "properties": { "FID_1": 173, "Route": "11", "Direction": "Eastbound", "Sequence": 25, "Stop_ID": 20719, "Stop_Abbre": "WOO57TNE", "Stop_Name": "Woodland Av & 57th St", "Latitude": 39.933297, "Longitude": -75.223289, "Sign_Up": "Elmwood" }, "geometry": { "type": "Point", "coordinates": [ 2676983.193852052092552, 228691.894902393221855 ] } },
{ "type": "Feature", "properties": { "FID_1": 174, "Route": "34", "Direction": "Eastbound", "Sequence": 45, "Stop_ID": 31140, "Stop_Abbre": "MA15EAU", "Stop_Name": "15th St Trolley Station", "Latitude": 39.952502, "Longitude": -75.165369, "Sign_Up": "Elmwood" }, "geometry": { "type": "Point", "coordinates": [ 2693014.483967885375023, 236154.923283398151398 ] } },
{ "type": "Feature", "properties": { "FID_1": 175, "Route": "36", "Direction": "Westbound", "Sequence": 5, "Stop_ID": 20662, "Stop_Abbre": "MA30WEU", "Stop_Name": "30th St Trolley Station", "Latitude": 39.954894, "Longitude": -75.183169, "Sign_Up": "Elmwood" }, "geometry": { "type": "Point", "coordinates": [ 2688000.943470060825348, 236880.387711733579636 ] } },
{ "type": "Feature", "properties": { "FID_1": 176, "Route": "101", "Direction": "Westbound", "Sequence": 26, "Stop_ID": 1945, "Stop_Abbre": "96WE", "Stop_Name": "96 Signal - not a stop", "Latitude": 39.915833, "Longitude": -75.364681, "Sign_Up": "Victory" }, "geometry": { "type": "Point", "coordinates": [ 2637519.026717558503151, 221229.803527399897575 ] } },
{ "type": "Feature", "properties": { "FID_1": 177, "Route": "101", "Direction": "Eastbound", "Sequence": 18, "Stop_ID": 18623, "Stop_Abbre": "SPRSTANE", "Stop_Name": "Springfield Rd Station - FS", "Latitude": 39.934409, "Longitude": -75.329458, "Sign_Up": "Victory" }, "geometry": { "type": "Point", "coordinates": [ 2647210.230104133486748, 228262.968266814947128 ] } },
{ "type": "Feature", "properties": { "FID_1": 178, "Route": "15", "Direction": "Westbound", "Sequence": 32, "Stop_ID": 21001, "Stop_Abbre": "GIR11TWE", "Stop_Name": "Girard Av & 11th St", "Latitude": 39.970845, "Longitude": -75.154021, "Sign_Up": "Callowhill" }, "geometry": { "type": "Point", "coordinates": [ 2695998.202081799507141, 242927.366759479045868 ] } },
{ "type": "Feature", "properties": { "FID_1": 179, "Route": "15", "Direction": "Westbound", "Sequence": 2, "Stop_ID": 12196, "Stop_Abbre": "RICALLSW", "Stop_Name": "Richmond St & Allegheny Av", "Latitude": 39.983071, "Longitude": -75.101401, "Sign_Up": "Callowhill" }, "geometry": { "type": "Point", "coordinates": [ 2710606.505870386958122, 247816.946547225117683 ] } },
{ "type": "Feature", "properties": { "FID_1": 180, "Route": "11", "Direction": "Eastbound", "Sequence": 1, "Stop_ID": 305, "Stop_Abbre": "DARTRA1", "Stop_Name": "Darby Transportation Center - trolley", "Latitude": 39.91904, "Longitude": -75.262317, "Sign_Up": "Elmwood" }, "geometry": { "type": "Point", "coordinates": [ 2666189.053366884589195, 223189.703150898218155 ] } },
{ "type": "Feature", "properties": { "FID_1": 181, "Route": "34", "Direction": "Eastbound", "Sequence": 42, "Stop_ID": 20643, "Stop_Abbre": "MA30EAU", "Stop_Name": "30th St Trolley Station", "Latitude": 39.954815, "Longitude": -75.1835, "Sign_Up": "Elmwood" }, "geometry": { "type": "Point", "coordinates": [ 2687909.024362549185753, 236848.925176233053207 ] } },
{ "type": "Feature", "properties": { "FID_1": 182, "Route": "11", "Direction": "Eastbound", "Sequence": 23, "Stop_ID": 20716, "Stop_Abbre": "WOO60TNE", "Stop_Name": "Woodland Av & 60th St", "Latitude": 39.930217, "Longitude": -75.227642, "Sign_Up": "Elmwood" }, "geometry": { "type": "Point", "coordinates": [ 2675794.999378055334091, 227535.472346469759941 ] } },
{ "type": "Feature", "properties": { "FID_1": 183, "Route": "34", "Direction": "Eastbound", "Sequence": 2, "Stop_ID": 20725, "Stop_Abbre": "WOO50TNE", "Stop_Name": "Woodland Av & 50th St", "Latitude": 39.939886, "Longitude": -75.213907, "Sign_Up": "Elmwood" }, "geometry": { "type": "Point", "coordinates": [ 2679544.237614467740059, 231166.565806061029434 ] } },
{ "type": "Feature", "properties": { "FID_1": 184, "Route": "102", "Direction": "Eastbound", "Sequence": 25, "Stop_ID": 15348, "Stop_Abbre": "FAISTANE", "Stop_Name": "Fairfield Av Station", "Latitude": 39.960864, "Longitude": -75.263613, "Sign_Up": "Victory" }, "geometry": { "type": "Point", "coordinates": [ 2665396.775423884391785, 238409.154995396733284 ] } },
{ "type": "Feature", "properties": { "FID_1": 185, "Route": "15", "Direction": "Westbound", "Sequence": 6, "Stop_ID": 20980, "Stop_Abbre": "RICINDSW", "Stop_Name": "Belgrade St & Indiana Av - detour", "Latitude": 39.984063, "Longitude": -75.108757, "Sign_Up": "Callowhill" }, "geometry": { "type": "Point", "coordinates": [ 2708535.251810804009438, 248116.424294725060463 ] } },
{ "type": "Feature", "properties": { "FID_1": 186, "Route": "36", "Direction": "Eastbound", "Sequence": 9, "Stop_ID": 20932, "Stop_Abbre": "ELM73RNE", "Stop_Name": "Elmwood Av & 73rd St", "Latitude": 39.914129, "Longitude": -75.241816, "Sign_Up": "Elmwood" }, "geometry": { "type": "Point", "coordinates": [ 2671987.967622056603432, 221564.068606898188591 ] } },
{ "type": "Feature", "properties": { "FID_1": 187, "Route": "15", "Direction": "Eastbound", "Sequence": 3, "Stop_ID": 21047, "Stop_Abbre": "GIR61SEA", "Stop_Name": "Girard Av & 61st St", "Latitude": 39.969801, "Longitude": -75.241221, "Sign_Up": "Callowhill" }, "geometry": { "type": "Point", "coordinates": [ 2671578.754201635718346, 241840.928971722722054 ] } },
{ "type": "Feature", "properties": { "FID_1": 188, "Route": "34", "Direction": "Eastbound", "Sequence": 37, "Stop_ID": 20804, "Stop_Abbre": "40TPORNE", "Stop_Name": "40th St Trolley Portal", "Latitude": 39.949533, "Longitude": -75.203333, "Sign_Up": "Elmwood" }, "geometry": { "type": "Point", "coordinates": [ 2682406.719094216823578, 234764.646864473819733 ] } },
{ "type": "Feature", "properties": { "FID_1": 189, "Route": "10", "Direction": "Eastbound", "Sequence": 1, "Stop_ID": 31294, "Stop_Abbre": "MALLOOSW", "Stop_Name": "Malvern Av & 63rd St Loop - 2 onsite", "Latitude": 39.983838, "Longitude": -75.245957, "Sign_Up": "Callowhill" }, "geometry": { "type": "Point", "coordinates": [ 2670106.889691308140755, 246914.633719310164452 ] } },
{ "type": "Feature", "properties": { "FID_1": 190, "Route": "13", "Direction": "Eastbound", "Sequence": 25, "Stop_ID": 20793, "Stop_Abbre": "CHE55TNE", "Stop_Name": "Chester Av & 55th St", "Latitude": 39.938654, "Longitude": -75.224301, "Sign_Up": "Elmwood" }, "geometry": { "type": "Point", "coordinates": [ 2676643.705357804894447, 230634.437605232000351 ] } },
{ "type": "Feature", "properties": { "FID_1": 191, "Route": "34", "Direction": "Eastbound", "Sequence": 33, "Stop_ID": 20875, "Stop_Abbre": "BAL43REA", "Stop_Name": "Baltimore Av & 43rd St", "Latitude": 39.949481, "Longitude": -75.20932, "Sign_Up": "Elmwood" }, "geometry": { "type": "Point", "coordinates": [ 2680729.394692972302437, 234697.370096147060394 ] } },
{ "type": "Feature", "properties": { "FID_1": 192, "Route": "11", "Direction": "Eastbound", "Sequence": 47, "Stop_ID": 31140, "Stop_Abbre": "MA15EAU", "Stop_Name": "15th St Trolley Station", "Latitude": 39.952502, "Longitude": -75.165369, "Sign_Up": "Elmwood" }, "geometry": { "type": "Point", "coordinates": [ 2693014.483967885375023, 236154.923283398151398 ] } },
{ "type": "Feature", "properties": { "FID_1": 193, "Route": "34", "Direction": "Eastbound", "Sequence": 25, "Stop_ID": 20869, "Stop_Abbre": "BAL50TEA", "Stop_Name": "Baltimore Av & 50th St", "Latitude": 39.947872, "Longitude": -75.223377, "Sign_Up": "Elmwood" }, "geometry": { "type": "Point", "coordinates": [ 2676806.642039805650711, 233998.424643650650978 ] } },
{ "type": "Feature", "properties": { "FID_1": 194, "Route": "15", "Direction": "Westbound", "Sequence": 61, "Stop_ID": 21038, "Stop_Abbre": "GIR57TWE", "Stop_Name": "Girard Av & 57th St", "Latitude": 39.970585, "Longitude": -75.234096, "Sign_Up": "Callowhill" }, "geometry": { "type": "Point", "coordinates": [ 2673566.84012046456337, 242183.215360641479492 ] } },
{ "type": "Feature", "properties": { "FID_1": 195, "Route": "10", "Direction": "Eastbound", "Sequence": 9, "Stop_ID": 20616, "Stop_Abbre": "LAN59TEA", "Stop_Name": "Lansdowne Av & 59th St", "Latitude": 39.976054, "Longitude": -75.238653, "Sign_Up": "Callowhill" }, "geometry": { "type": "Point", "coordinates": [ 2672233.467459142208099, 244138.319718137383461 ] } },
{ "type": "Feature", "properties": { "FID_1": 196, "Route": "36", "Direction": "Eastbound", "Sequence": 16, "Stop_ID": 20939, "Stop_Abbre": "ELM66TNE", "Stop_Name": "Elmwood Av & 66th St", "Latitude": 39.921236, "Longitude": -75.231587, "Sign_Up": "Elmwood" }, "geometry": { "type": "Point", "coordinates": [ 2674782.367545053362846, 224233.616417393088341 ] } },
{ "type": "Feature", "properties": { "FID_1": 197, "Route": "11", "Direction": "Westbound", "Sequence": 36, "Stop_ID": 20759, "Stop_Abbre": "WOO71SSW", "Stop_Name": "Woodland Av & 71st St", "Latitude": 39.919584, "Longitude": -75.242958, "Sign_Up": "Elmwood" }, "geometry": { "type": "Point", "coordinates": [ 2671611.344031468033791, 223541.329744219779968 ] } },
{ "type": "Feature", "properties": { "FID_1": 198, "Route": "34", "Direction": "Eastbound", "Sequence": 30, "Stop_ID": 20872, "Stop_Abbre": "BAL46TEA", "Stop_Name": "Baltimore Av & 46th St", "Latitude": 39.948786, "Longitude": -75.215061, "Sign_Up": "Elmwood" }, "geometry": { "type": "Point", "coordinates": [ 2679127.729261130094528, 234398.0498286485672 ] } },
{ "type": "Feature", "properties": { "FID_1": 199, "Route": "13", "Direction": "Eastbound", "Sequence": 9, "Stop_ID": 20776, "Stop_Abbre": "CHEDUNNE", "Stop_Name": "Chester Av & Duncan Av", "Latitude": 39.925617, "Longitude": -75.249175, "Sign_Up": "Elmwood" }, "geometry": { "type": "Point", "coordinates": [ 2669805.999545052647591, 225688.724071472883224 ] } },
{ "type": "Feature", "properties": { "FID_1": 200, "Route": "34", "Direction": "Westbound", "Sequence": 20, "Stop_ID": 601, "Stop_Abbre": "BAL49TWE", "Stop_Name": "Baltimore Av & 49th St", "Latitude": 39.948261, "Longitude": -75.221109, "Sign_Up": "Elmwood" }, "geometry": { "type": "Point", "coordinates": [ 2677438.215251713991165, 234158.271108731627464 ] } },
{ "type": "Feature", "properties": { "FID_1": 201, "Route": "36", "Direction": "Eastbound", "Sequence": 12, "Stop_ID": 20935, "Stop_Abbre": "ELM70TNE", "Stop_Name": "Elmwood Av & 70th St", "Latitude": 39.91713, "Longitude": -75.237452, "Sign_Up": "Elmwood" }, "geometry": { "type": "Point", "coordinates": [ 2673180.539383888244629, 222691.629343897104263 ] } },
{ "type": "Feature", "properties": { "FID_1": 202, "Route": "34", "Direction": "Eastbound", "Sequence": 41, "Stop_ID": 20642, "Stop_Abbre": "33MAEAU", "Stop_Name": "33rd St Trolley Station", "Latitude": 39.954773, "Longitude": -75.1897, "Sign_Up": "Elmwood" }, "geometry": { "type": "Point", "coordinates": [ 2686172.051130473613739, 236783.185806393623352 ] } },
{ "type": "Feature", "properties": { "FID_1": 203, "Route": "15", "Direction": "Eastbound", "Sequence": 31, "Stop_ID": 21082, "Stop_Abbre": "GIR17TEA", "Stop_Name": "Girard Av & 17th St", "Latitude": 39.972028, "Longitude": -75.164352, "Sign_Up": "Callowhill" }, "geometry": { "type": "Point", "coordinates": [ 2693091.254483640193939, 243273.191527143120766 ] } },
{ "type": "Feature", "properties": { "FID_1": 204, "Route": "13", "Direction": "Eastbound", "Sequence": 23, "Stop_ID": 20791, "Stop_Abbre": "CHE57TNE", "Stop_Name": "Chester Av & 57th St", "Latitude": 39.936642, "Longitude": -75.227187, "Sign_Up": "Elmwood" }, "geometry": { "type": "Point", "coordinates": [ 2675855.698403641581535, 229878.672712564468384 ] } },
{ "type": "Feature", "properties": { "FID_1": 205, "Route": "15", "Direction": "Westbound", "Sequence": 44, "Stop_ID": 21017, "Stop_Abbre": "GIR27TWE", "Stop_Name": "Girard Av & 27th St", "Latitude": 39.974202, "Longitude": -75.18028, "Sign_Up": "Callowhill" }, "geometry": { "type": "Point", "coordinates": [ 2688605.885173559188843, 243934.519928887486458 ] } },
{ "type": "Feature", "properties": { "FID_1": 206, "Route": "11", "Direction": "Eastbound", "Sequence": 42, "Stop_ID": 20732, "Stop_Abbre": "36SANOU", "Stop_Name": "36th St Trolley Station", "Latitude": 39.953854, "Longitude": -75.194533, "Sign_Up": "Elmwood" }, "geometry": { "type": "Point", "coordinates": [ 2684827.389449715614319, 236409.311882227659225 ] } },
{ "type": "Feature", "properties": { "FID_1": 207, "Route": "36", "Direction": "Eastbound", "Sequence": 41, "Stop_ID": 21248, "Stop_Abbre": "40TMARSO", "Stop_Name": "40th St & Market St", "Latitude": 39.957259, "Longitude": -75.202021, "Sign_Up": "Elmwood" }, "geometry": { "type": "Point", "coordinates": [ 2682693.21786504983902, 237588.527043476700783 ] } },
{ "type": "Feature", "properties": { "FID_1": 208, "Route": "34", "Direction": "Westbound", "Sequence": 42, "Stop_ID": 20867, "Stop_Abbre": "BALBROEA", "Stop_Name": "Baltimore Av & Broomall St", "Latitude": 39.947727, "Longitude": -75.227912, "Sign_Up": "Elmwood" }, "geometry": { "type": "Point", "coordinates": [ 2675537.168200805783272, 233909.284730061888695 ] } },
{ "type": "Feature", "properties": { "FID_1": 209, "Route": "101", "Direction": "Westbound", "Sequence": 24, "Stop_ID": 1944, "Stop_Abbre": "SPMSTASW", "Stop_Name": "Springfield Mall Station", "Latitude": 39.918278, "Longitude": -75.348885, "Sign_Up": "Victory" }, "geometry": { "type": "Point", "coordinates": [ 2641924.081227630376816, 222240.204721808433533 ] } },
{ "type": "Feature", "properties": { "FID_1": 210, "Route": "10", "Direction": "Westbound", "Sequence": 29, "Stop_ID": 20685, "Stop_Abbre": "LAN56TWE", "Stop_Name": "Lansdowne Av & 56th St", "Latitude": 39.976707, "Longitude": -75.233607, "Sign_Up": "Callowhill" }, "geometry": { "type": "Point", "coordinates": [ 2673640.304212391376495, 244416.350001975893974 ] } },
{ "type": "Feature", "properties": { "FID_1": 211, "Route": "36", "Direction": "Eastbound", "Sequence": 8, "Stop_ID": 611, "Stop_Abbre": "ELMLOOWE", "Stop_Name": "Elmwood Loop", "Latitude": 39.914015, "Longitude": -75.242642, "Sign_Up": "Elmwood" }, "geometry": { "type": "Point", "coordinates": [ 2671757.535012051463127, 221515.978151887655258 ] } },
{ "type": "Feature", "properties": { "FID_1": 212, "Route": "34", "Direction": "Westbound", "Sequence": 16, "Stop_ID": 20882, "Stop_Abbre": "BAL45TWE", "Stop_Name": "Baltimore Av & 45th St", "Latitude": 39.949148, "Longitude": -75.212828, "Sign_Up": "Elmwood" }, "geometry": { "type": "Point", "coordinates": [ 2679749.75262339413166, 234547.841851890087128 ] } },
{ "type": "Feature", "properties": { "FID_1": 213, "Route": "13", "Direction": "Eastbound", "Sequence": 21, "Stop_ID": 20788, "Stop_Abbre": "CHE59TNE", "Stop_Name": "Chester Av & 59th St", "Latitude": 39.934754, "Longitude": -75.229944, "Sign_Up": "Elmwood" }, "geometry": { "type": "Point", "coordinates": [ 2675102.514542549848557, 229169.117701232433319 ] } },
{ "type": "Feature", "properties": { "FID_1": 214, "Route": "13", "Direction": "Eastbound", "Sequence": 10, "Stop_ID": 20777, "Stop_Abbre": "CHEYEAEA", "Stop_Name": "Chester Av & Yeadon Av", "Latitude": 39.92607, "Longitude": -75.247486, "Sign_Up": "Elmwood" }, "geometry": { "type": "Point", "coordinates": [ 2670274.842767477035522, 225867.09477773308754 ] } },
{ "type": "Feature", "properties": { "FID_1": 215, "Route": "34", "Direction": "Westbound", "Sequence": 18, "Stop_ID": 20884, "Stop_Abbre": "BAL47TWE", "Stop_Name": "Baltimore Av & 47th St", "Latitude": 39.948691, "Longitude": -75.21701, "Sign_Up": "Elmwood" }, "geometry": { "type": "Point", "coordinates": [ 2678582.502661302685738, 234347.779916062951088 ] } },
{ "type": "Feature", "properties": { "FID_1": 216, "Route": "13", "Direction": "Eastbound", "Sequence": 7, "Stop_ID": 20774, "Stop_Abbre": "CHEYEANE", "Stop_Name": "Chester Av & Allen Dr Yeadon Loop", "Latitude": 39.924525, "Longitude": -75.252542, "Sign_Up": "Elmwood" }, "geometry": { "type": "Point", "coordinates": [ 2668873.293077141046524, 225264.366980567574501 ] } },
{ "type": "Feature", "properties": { "FID_1": 217, "Route": "11", "Direction": "Eastbound", "Sequence": 28, "Stop_ID": 20722, "Stop_Abbre": "WOO54TNE", "Stop_Name": "Woodland Av & 54th St", "Latitude": 39.936262, "Longitude": -75.219054, "Sign_Up": "Elmwood" }, "geometry": { "type": "Point", "coordinates": [ 2678139.400201052427292, 229805.551139637827873 ] } },
{ "type": "Feature", "properties": { "FID_1": 218, "Route": "36", "Direction": "Westbound", "Sequence": 7, "Stop_ID": 20733, "Stop_Abbre": "36SASOU", "Stop_Name": "36th St Trolley Station", "Latitude": 39.95389, "Longitude": -75.194722, "Sign_Up": "Elmwood" }, "geometry": { "type": "Point", "coordinates": [ 2684774.046052470803261, 236420.887646481394768 ] } },
{ "type": "Feature", "properties": { "FID_1": 219, "Route": "36", "Direction": "Eastbound", "Sequence": 3, "Stop_ID": 20927, "Stop_Abbre": "ISLLINNW", "Stop_Name": "Island Av & Lindbergh Blvd - FS", "Latitude": 39.904257, "Longitude": -75.240461, "Sign_Up": "Elmwood" }, "geometry": { "type": "Point", "coordinates": [ 2672470.090017393231392, 217980.127940148115158 ] } },
{ "type": "Feature", "properties": { "FID_1": 220, "Route": "13", "Direction": "Eastbound", "Sequence": 43, "Stop_ID": 20645, "Stop_Abbre": "MA22EAU", "Stop_Name": "22nd St Trolley Station", "Latitude": 39.953962, "Longitude": -75.176736, "Sign_Up": "Elmwood" }, "geometry": { "type": "Point", "coordinates": [ 2689813.538926213979721, 236593.498521730303764 ] } },
{ "type": "Feature", "properties": { "FID_1": 221, "Route": "13", "Direction": "Westbound", "Sequence": 24, "Stop_ID": 20820, "Stop_Abbre": "CHE57TSW", "Stop_Name": "Chester Av & 57th St", "Latitude": 39.936802, "Longitude": -75.227163, "Sign_Up": "Elmwood" }, "geometry": { "type": "Point", "coordinates": [ 2675860.760729476809502, 229937.126335814595222 ] } },
{ "type": "Feature", "properties": { "FID_1": 222, "Route": "10", "Direction": "Eastbound", "Sequence": 39, "Stop_ID": 283, "Stop_Abbre": "JUNSTANO", "Stop_Name": "13th St Trolley Station", "Latitude": 39.952532, "Longitude": -75.162559, "Sign_Up": "Callowhill" }, "geometry": { "type": "Point", "coordinates": [ 2693801.626750558614731, 236188.913044810295105 ] } },
{ "type": "Feature", "properties": { "FID_1": 223, "Route": "11", "Direction": "Westbound", "Sequence": 4, "Stop_ID": 20661, "Stop_Abbre": "MA22WEU", "Stop_Name": "22nd St Trolley Station", "Latitude": 39.954051, "Longitude": -75.176571, "Sign_Up": "Elmwood" }, "geometry": { "type": "Point", "coordinates": [ 2689858.832470804452896, 236627.253375470638275 ] } },
{ "type": "Feature", "properties": { "FID_1": 224, "Route": "15", "Direction": "Eastbound", "Sequence": 40, "Stop_ID": 21096, "Stop_Abbre": "GIR2NDEA", "Stop_Name": "Girard Av & 2nd St", "Latitude": 39.969439, "Longitude": -75.139805, "Sign_Up": "Callowhill" }, "geometry": { "type": "Point", "coordinates": [ 2699996.074991554021835, 242532.83966138958931 ] } },
{ "type": "Feature", "properties": { "FID_1": 225, "Route": "102", "Direction": "Eastbound", "Sequence": 22, "Stop_ID": 18631, "Stop_Abbre": "HILSTANE", "Stop_Name": "Hilltop Rd Station - FS", "Latitude": 39.955967, "Longitude": -75.272718, "Sign_Up": "Victory" }, "geometry": { "type": "Point", "coordinates": [ 2662895.48875980079174, 236554.248272150754929 ] } },
{ "type": "Feature", "properties": { "FID_1": 226, "Route": "15", "Direction": "Westbound", "Sequence": 56, "Stop_ID": 21030, "Stop_Abbre": "GIR49TWE", "Stop_Name": "Girard Av & 49th St", "Latitude": 39.972917, "Longitude": -75.219064, "Sign_Up": "Callowhill" }, "geometry": { "type": "Point", "coordinates": [ 2677753.969869554042816, 243152.744261473417282 ] } },
{ "type": "Feature", "properties": { "FID_1": 227, "Route": "15", "Direction": "Eastbound", "Sequence": 10, "Stop_ID": 21056, "Stop_Abbre": "GIR51SEA", "Stop_Name": "Girard Av & 51st St", "Latitude": 39.971845, "Longitude": -75.223745, "Sign_Up": "Callowhill" }, "geometry": { "type": "Point", "coordinates": [ 2676453.724110469222069, 242724.83402806520462 ] } },
{ "type": "Feature", "properties": { "FID_1": 228, "Route": "36", "Direction": "Eastbound", "Sequence": 10, "Stop_ID": 20933, "Stop_Abbre": "ELM72NNE", "Stop_Name": "Elmwood Av & 72nd St", "Latitude": 39.9151, "Longitude": -75.240408, "Sign_Up": "Elmwood" }, "geometry": { "type": "Point", "coordinates": [ 2672372.722101882100105, 221928.862496733665466 ] } },
{ "type": "Feature", "properties": { "FID_1": 229, "Route": "10", "Direction": "Eastbound", "Sequence": 10, "Stop_ID": 20617, "Stop_Abbre": "LAN58TEA", "Stop_Name": "Lansdowne Av & 58th St", "Latitude": 39.976248, "Longitude": -75.236904, "Sign_Up": "Callowhill" }, "geometry": { "type": "Point", "coordinates": [ 2672721.431050136685371, 244222.903866559267044 ] } },
{ "type": "Feature", "properties": { "FID_1": 230, "Route": "15", "Direction": "Eastbound", "Sequence": 22, "Stop_ID": 21070, "Stop_Abbre": "GIR27TEA", "Stop_Name": "Girard Av & 27th St", "Latitude": 39.974113, "Longitude": -75.180504, "Sign_Up": "Callowhill" }, "geometry": { "type": "Point", "coordinates": [ 2688544.075257807970047, 243900.286073476076126 ] } },
{ "type": "Feature", "properties": { "FID_1": 231, "Route": "102", "Direction": "Westbound", "Sequence": 6, "Stop_ID": 18599, "Stop_Abbre": "BEVSTASW", "Stop_Name": "Beverly Blvd Station - FS", "Latitude": 39.955095, "Longitude": -75.274822, "Sign_Up": "Victory" }, "geometry": { "type": "Point", "coordinates": [ 2662314.783556386828423, 236220.18233922123909 ] } },
{ "type": "Feature", "properties": { "FID_1": 232, "Route": "34", "Direction": "Westbound", "Sequence": 11, "Stop_ID": 21248, "Stop_Abbre": "40TMARSO", "Stop_Name": "40th St & Market St", "Latitude": 39.957259, "Longitude": -75.202021, "Sign_Up": "Elmwood" }, "geometry": { "type": "Point", "coordinates": [ 2682693.21786504983902, 237588.527043476700783 ] } },
{ "type": "Feature", "properties": { "FID_1": 233, "Route": "36", "Direction": "Eastbound", "Sequence": 36, "Stop_ID": 20958, "Stop_Abbre": "WOO47TNE", "Stop_Name": "Woodland Av & 47th St", "Latitude": 39.943245, "Longitude": -75.210839, "Sign_Up": "Elmwood" }, "geometry": { "type": "Point", "coordinates": [ 2680368.997447893023491, 232414.39992456138134 ] } },
{ "type": "Feature", "properties": { "FID_1": 234, "Route": "13", "Direction": "Eastbound", "Sequence": 45, "Stop_ID": 31140, "Stop_Abbre": "MA15EAU", "Stop_Name": "15th St Trolley Station", "Latitude": 39.952502, "Longitude": -75.165369, "Sign_Up": "Elmwood" }, "geometry": { "type": "Point", "coordinates": [ 2693014.483967885375023, 236154.923283398151398 ] } },
{ "type": "Feature", "properties": { "FID_1": 235, "Route": "15", "Direction": "Eastbound", "Sequence": 47, "Stop_ID": 21098, "Stop_Abbre": "GIRFRAEA", "Stop_Name": "Girard Av & Frankford Av- FS", "Latitude": 39.968855, "Longitude": -75.134244, "Sign_Up": "Callowhill" }, "geometry": { "type": "Point", "coordinates": [ 2701560.365170046687126, 242366.303905233740807 ] } },
{ "type": "Feature", "properties": { "FID_1": 236, "Route": "15", "Direction": "Westbound", "Sequence": 28, "Stop_ID": 20995, "Stop_Abbre": "GIR4THWE", "Stop_Name": "Girard Av & 4th St", "Latitude": 39.96999, "Longitude": -75.142968, "Sign_Up": "Callowhill" }, "geometry": { "type": "Point", "coordinates": [ 2699103.991473883390427, 242707.288131400942802 ] } },
{ "type": "Feature", "properties": { "FID_1": 237, "Route": "101", "Direction": "Eastbound", "Sequence": 3, "Stop_ID": 18616, "Stop_Abbre": "OLISTAEA", "Stop_Name": "Olive St Station", "Latitude": 39.918066, "Longitude": -75.391165, "Sign_Up": "Victory" }, "geometry": { "type": "Point", "coordinates": [ 2630071.023568972945213, 221843.433861806988716 ] } },
{ "type": "Feature", "properties": { "FID_1": 238, "Route": "102", "Direction": "Westbound", "Sequence": 14, "Stop_ID": 15327, "Stop_Abbre": "MARSTASO", "Stop_Name": "Marshall Rd Station", "Latitude": 39.940135, "Longitude": -75.296544, "Sign_Up": "Victory" }, "geometry": { "type": "Point", "coordinates": [ 2656378.872527971863747, 230602.718180477619171 ] } },
{ "type": "Feature", "properties": { "FID_1": 239, "Route": "13", "Direction": "Westbound", "Sequence": 12, "Stop_ID": 20808, "Stop_Abbre": "CHE43RWE", "Stop_Name": "Chester Av & 43rd St", "Latitude": 39.948481, "Longitude": -75.208945, "Sign_Up": "Elmwood" }, "geometry": { "type": "Point", "coordinates": [ 2680844.969593048095703, 234336.263534888625145 ] } },
{ "type": "Feature", "properties": { "FID_1": 240, "Route": "13", "Direction": "Eastbound", "Sequence": 6, "Stop_ID": 20773, "Stop_Abbre": "CHEALDNE", "Stop_Name": "Chester Av & Alfred Av", "Latitude": 39.923697, "Longitude": -75.254279, "Sign_Up": "Elmwood" }, "geometry": { "type": "Point", "coordinates": [ 2668394.831763714551926, 224949.091364398598671 ] } },
{ "type": "Feature", "properties": { "FID_1": 241, "Route": "102", "Direction": "Westbound", "Sequence": 8, "Stop_ID": 1939, "Stop_Abbre": "LANSTASW", "Stop_Name": "Lansdowne Av Station - FS", "Latitude": 39.951694, "Longitude": -75.282422, "Sign_Up": "Victory" }, "geometry": { "type": "Point", "coordinates": [ 2660219.605332046747208, 234922.125552147626877 ] } },
{ "type": "Feature", "properties": { "FID_1": 242, "Route": "10", "Direction": "Westbound", "Sequence": 21, "Stop_ID": 20675, "Stop_Abbre": "LANWESNW", "Stop_Name": "Lancaster Av & Westminster St", "Latitude": 39.969353, "Longitude": -75.212283, "Sign_Up": "Callowhill" }, "geometry": { "type": "Point", "coordinates": [ 2679691.014223799109459, 241909.511839807033539 ] } },
{ "type": "Feature", "properties": { "FID_1": 243, "Route": "34", "Direction": "Westbound", "Sequence": 48, "Stop_ID": 610, "Stop_Abbre": "ELM73RSW", "Stop_Name": "Elmwood Av & 73rd St", "Latitude": 39.914335, "Longitude": -75.241732, "Sign_Up": "Elmwood" }, "geometry": { "type": "Point", "coordinates": [ 2672009.390151381492615, 221639.74955789744854 ] } },
{ "type": "Feature", "properties": { "FID_1": 244, "Route": "15", "Direction": "Eastbound", "Sequence": 15, "Stop_ID": 21062, "Stop_Abbre": "GIR41SEA", "Stop_Name": "Girard Av & 41st St", "Latitude": 39.973823, "Longitude": -75.206528, "Sign_Up": "Callowhill" }, "geometry": { "type": "Point", "coordinates": [ 2681256.504531130194664, 243583.576405063271523 ] } },
{ "type": "Feature", "properties": { "FID_1": 245, "Route": "13", "Direction": "Eastbound", "Sequence": 39, "Stop_ID": 20731, "Stop_Abbre": "SP37NEU", "Stop_Name": "37th St Trolley Station", "Latitude": 39.950993, "Longitude": -75.196586, "Sign_Up": "Elmwood" }, "geometry": { "type": "Point", "coordinates": [ 2684282.200579464435577, 235350.890770733356476 ] } },
{ "type": "Feature", "properties": { "FID_1": 246, "Route": "102", "Direction": "Eastbound", "Sequence": 14, "Stop_ID": 18846, "Stop_Abbre": "DRESTANO", "Stop_Name": "Drexel Manor Station - MBNS", "Latitude": 39.942196, "Longitude": -75.296446, "Sign_Up": "Victory" }, "geometry": { "type": "Point", "coordinates": [ 2656385.485375642776489, 231353.976848557591438 ] } },
{ "type": "Feature", "properties": { "FID_1": 247, "Route": "13", "Direction": "Eastbound", "Sequence": 22, "Stop_ID": 320, "Stop_Abbre": "CHE58TNE", "Stop_Name": "Chester Av & 58th St", "Latitude": 39.935653, "Longitude": -75.228572, "Sign_Up": "Elmwood" }, "geometry": { "type": "Point", "coordinates": [ 2675477.757886558771133, 229507.454294890165329 ] } },
{ "type": "Feature", "properties": { "FID_1": 248, "Route": "101", "Direction": "Westbound", "Sequence": 21, "Stop_ID": 18614, "Stop_Abbre": "LEASTASW", "Stop_Name": "Leamy Av Station", "Latitude": 39.926338, "Longitude": -75.337378, "Sign_Up": "Victory" }, "geometry": { "type": "Point", "coordinates": [ 2645070.3623366355896, 225263.177678480744362 ] } },
{ "type": "Feature", "properties": { "FID_1": 249, "Route": "13", "Direction": "Eastbound", "Sequence": 3, "Stop_ID": 20770, "Stop_Abbre": "9THSUMNE", "Stop_Name": "9th St & Summit Av", "Latitude": 39.921142, "Longitude": -75.258866, "Sign_Up": "Elmwood" }, "geometry": { "type": "Point", "coordinates": [ 2667135.057052299380302, 223982.401696726679802 ] } },
{ "type": "Feature", "properties": { "FID_1": 250, "Route": "10", "Direction": "Eastbound", "Sequence": 25, "Stop_ID": 20634, "Stop_Abbre": "LAN41SSE", "Stop_Name": "Lancaster Av & 41st St", "Latitude": 39.965093, "Longitude": -75.205564, "Sign_Up": "Callowhill" }, "geometry": { "type": "Point", "coordinates": [ 2681618.186222463846207, 240412.495148807764053 ] } },
{ "type": "Feature", "properties": { "FID_1": 251, "Route": "11", "Direction": "Westbound", "Sequence": 18, "Stop_ID": 20742, "Stop_Abbre": "WOO52NSW", "Stop_Name": "Woodland Av & 52nd St", "Latitude": 39.938408, "Longitude": -75.216214, "Sign_Up": "Elmwood" }, "geometry": { "type": "Point", "coordinates": [ 2678913.047931969165802, 230609.81232638657093 ] } },
{ "type": "Feature", "properties": { "FID_1": 252, "Route": "34", "Direction": "Eastbound", "Sequence": 21, "Stop_ID": 20865, "Stop_Abbre": "BAL54TEA", "Stop_Name": "Baltimore Av & 54th St", "Latitude": 39.947742, "Longitude": -75.231466, "Sign_Up": "Elmwood" }, "geometry": { "type": "Point", "coordinates": [ 2674540.962187975645065, 233886.312991231679916 ] } },
{ "type": "Feature", "properties": { "FID_1": 253, "Route": "11", "Direction": "Westbound", "Sequence": 46, "Stop_ID": 25241, "Stop_Abbre": "MAIPOWWE", "Stop_Name": "Main St & Powell Av", "Latitude": 39.918244, "Longitude": -75.260608, "Sign_Up": "Elmwood" }, "geometry": { "type": "Point", "coordinates": [ 2666676.400161221623421, 222913.356262639164925 ] } },
{ "type": "Feature", "properties": { "FID_1": 254, "Route": "13", "Direction": "Eastbound", "Sequence": 40, "Stop_ID": 20732, "Stop_Abbre": "36SANOU", "Stop_Name": "36th St Trolley Station", "Latitude": 39.953854, "Longitude": -75.194533, "Sign_Up": "Elmwood" }, "geometry": { "type": "Point", "coordinates": [ 2684827.389449715614319, 236409.311882227659225 ] } },
{ "type": "Feature", "properties": { "FID_1": 255, "Route": "36", "Direction": "Westbound", "Sequence": 42, "Stop_ID": 610, "Stop_Abbre": "ELM73RSW", "Stop_Name": "Elmwood Av & 73rd St", "Latitude": 39.914335, "Longitude": -75.241732, "Sign_Up": "Elmwood" }, "geometry": { "type": "Point", "coordinates": [ 2672009.390151381492615, 221639.74955789744854 ] } },
{ "type": "Feature", "properties": { "FID_1": 256, "Route": "15", "Direction": "Westbound", "Sequence": 51, "Stop_ID": 344, "Stop_Abbre": "GIR40TWE", "Stop_Name": "Girard Av & 40th St - FS", "Latitude": 39.974159, "Longitude": -75.204543, "Sign_Up": "Callowhill" }, "geometry": { "type": "Point", "coordinates": [ 2681809.078557223081589, 243721.951456397771835 ] } },
{ "type": "Feature", "properties": { "FID_1": 257, "Route": "15", "Direction": "Westbound", "Sequence": 18, "Stop_ID": 31540, "Stop_Abbre": "FRAGI2SO", "Stop_Name": "Frankford Av & Girard Av - FS", "Latitude": 39.96865, "Longitude": -75.134493, "Sign_Up": "Callowhill" }, "geometry": { "type": "Point", "coordinates": [ 2701492.815108299255371, 242289.591788306832314 ] } },
{ "type": "Feature", "properties": { "FID_1": 258, "Route": "15", "Direction": "Eastbound", "Sequence": 9, "Stop_ID": 21055, "Stop_Abbre": "GIR52NEA", "Stop_Name": "Girard Av & 52nd St", "Latitude": 39.971357, "Longitude": -75.225908, "Sign_Up": "Callowhill" }, "geometry": { "type": "Point", "coordinates": [ 2675852.814551144838333, 242529.804562479257584 ] } },
{ "type": "Feature", "properties": { "FID_1": 259, "Route": "13", "Direction": "Eastbound", "Sequence": 30, "Stop_ID": 321, "Stop_Abbre": "CHE49TNE", "Stop_Name": "Chester Av & 49th St", "Latitude": 39.944041, "Longitude": -75.216622, "Sign_Up": "Elmwood" }, "geometry": { "type": "Point", "coordinates": [ 2678739.828790217638016, 232657.685855314135551 ] } },
{ "type": "Feature", "properties": { "FID_1": 260, "Route": "36", "Direction": "Eastbound", "Sequence": 30, "Stop_ID": 20953, "Stop_Abbre": "GRA52NNE", "Stop_Name": "Grays Av & 52nd St", "Latitude": 39.936163, "Longitude": -75.213399, "Sign_Up": "Elmwood" }, "geometry": { "type": "Point", "coordinates": [ 2679725.576162546873093, 229814.994362220168114 ] } },
{ "type": "Feature", "properties": { "FID_1": 261, "Route": "101", "Direction": "Eastbound", "Sequence": 11, "Stop_ID": 1950, "Stop_Abbre": "96EA", "Stop_Name": "96 Signal - not a stop", "Latitude": 39.915681, "Longitude": -75.364598, "Sign_Up": "Victory" }, "geometry": { "type": "Point", "coordinates": [ 2637543.795696884393692, 221175.081523969769478 ] } },
{ "type": "Feature", "properties": { "FID_1": 262, "Route": "10", "Direction": "Westbound", "Sequence": 39, "Stop_ID": 31294, "Stop_Abbre": "MALLOOSW", "Stop_Name": "Malvern Av & 63rd St Loop - 2 onsite", "Latitude": 39.983838, "Longitude": -75.245957, "Sign_Up": "Callowhill" }, "geometry": { "type": "Point", "coordinates": [ 2670106.889691308140755, 246914.633719310164452 ] } },
{ "type": "Feature", "properties": { "FID_1": 263, "Route": "36", "Direction": "Eastbound", "Sequence": 43, "Stop_ID": 20732, "Stop_Abbre": "36SANOU", "Stop_Name": "36th St Trolley Station", "Latitude": 39.953854, "Longitude": -75.194533, "Sign_Up": "Elmwood" }, "geometry": { "type": "Point", "coordinates": [ 2684827.389449715614319, 236409.311882227659225 ] } },
{ "type": "Feature", "properties": { "FID_1": 264, "Route": "11", "Direction": "Westbound", "Sequence": 22, "Stop_ID": 20746, "Stop_Abbre": "WOO56TSW", "Stop_Name": "Woodland Av & 56th St", "Latitude": 39.934553, "Longitude": -75.221703, "Sign_Up": "Elmwood" }, "geometry": { "type": "Point", "coordinates": [ 2677414.684786975383759, 229161.973030477762222 ] } },
{ "type": "Feature", "properties": { "FID_1": 265, "Route": "15", "Direction": "Eastbound", "Sequence": 7, "Stop_ID": 21051, "Stop_Abbre": "GIR56TEA", "Stop_Name": "Girard Av & 56th St", "Latitude": 39.970636, "Longitude": -75.232667, "Sign_Up": "Callowhill" }, "geometry": { "type": "Point", "coordinates": [ 2673966.670357555150986, 242213.198568388819695 ] } },
{ "type": "Feature", "properties": { "FID_1": 266, "Route": "36", "Direction": "Westbound", "Sequence": 37, "Stop_ID": 20914, "Stop_Abbre": "ELM68TSW", "Stop_Name": "Elmwood Av & 68th St", "Latitude": 39.919446, "Longitude": -75.234401, "Sign_Up": "Elmwood" }, "geometry": { "type": "Point", "coordinates": [ 2674011.975056976079941, 223559.323802724480629 ] } },
{ "type": "Feature", "properties": { "FID_1": 267, "Route": "10", "Direction": "Westbound", "Sequence": 28, "Stop_ID": 20684, "Stop_Abbre": "LAN55TWE", "Stop_Name": "Lansdowne Av & 55th St", "Latitude": 39.976927, "Longitude": -75.231704, "Sign_Up": "Callowhill" }, "geometry": { "type": "Point", "coordinates": [ 2674171.130250468850136, 244511.660178810358047 ] } },
{ "type": "Feature", "properties": { "FID_1": 268, "Route": "13", "Direction": "Westbound", "Sequence": 44, "Stop_ID": 20839, "Stop_Abbre": "10TWYCSW", "Stop_Name": "10th St & Wycombe Av", "Latitude": 39.923096, "Longitude": -75.258471, "Sign_Up": "Elmwood" }, "geometry": { "type": "Point", "coordinates": [ 2667225.725178048014641, 224697.050201803445816 ] } },
{ "type": "Feature", "properties": { "FID_1": 269, "Route": "101", "Direction": "Westbound", "Sequence": 32, "Stop_ID": 15379, "Stop_Abbre": "MONSTAWE", "Stop_Name": "Monroe St Station", "Latitude": 39.917726, "Longitude": -75.387518, "Sign_Up": "Victory" }, "geometry": { "type": "Point", "coordinates": [ 2631096.948026299476624, 221746.964566558599472 ] } },
{ "type": "Feature", "properties": { "FID_1": 270, "Route": "10", "Direction": "Westbound", "Sequence": 15, "Stop_ID": 279, "Stop_Abbre": "40TFILSO", "Stop_Name": "40th St & Filbert St", "Latitude": 39.957929, "Longitude": -75.201901, "Sign_Up": "Callowhill" }, "geometry": { "type": "Point", "coordinates": [ 2682719.802785634994507, 237833.464873805642128 ] } },
{ "type": "Feature", "properties": { "FID_1": 271, "Route": "13", "Direction": "Westbound", "Sequence": 22, "Stop_ID": 20818, "Stop_Abbre": "CHE55TSW", "Stop_Name": "Chester Av & 55th St", "Latitude": 39.938832, "Longitude": -75.224253, "Sign_Up": "Elmwood" }, "geometry": { "type": "Point", "coordinates": [ 2676655.305400222539902, 230699.63826222717762 ] } },
{ "type": "Feature", "properties": { "FID_1": 272, "Route": "11", "Direction": "Westbound", "Sequence": 38, "Stop_ID": 304, "Stop_Abbre": "WOOISLSW", "Stop_Name": "Woodland Av & Island Av", "Latitude": 39.917304, "Longitude": -75.246245, "Sign_Up": "Elmwood" }, "geometry": { "type": "Point", "coordinates": [ 2670713.282507389783859, 222684.947926804423332 ] } },
{ "type": "Feature", "properties": { "FID_1": 273, "Route": "101", "Direction": "Westbound", "Sequence": 27, "Stop_ID": 15358, "Stop_Abbre": "PINSTAWE", "Stop_Name": "Pine Ridge Station - FS", "Latitude": 39.915024, "Longitude": -75.370004, "Sign_Up": "Victory" },